date_time,country,city,state,shape,summary,lat,lng,location
12/21/16 19:15,USA,Waynesboro,VA,Sphere,Bright round object hovering in sky.,38.0652286,-78.90588756,POINT(-78.9058875592407 38.0652286)
12/21/16 0:00,USA,Louisville,KY,Unknown,"Multiple craft ascending from north of Shelbyville road, very bright and ",38.2542376,-85.7594069,POINT(-85.7594069 38.2542376)
,,,,,very quiet in comparison to passenger planes seen in the sky a,,,
12/19/16 10:30,USA,Anchorage,AK,Circle,4 red silent crafts flying from North to South with no flashing airplane ,61.2163129,-149.8948522,POINT(-149.8948522 61.2163129)
,,,,,lights. ((anonymous report)),,,
9/12/16 19:30,USA,Lancing,TN,Diamond,I saw a diamond shaped object with two bright lights that hovered in the ,36.1206306,-84.6538307,POINT(-84.6538307 36.1206306)
,,,,,"air, with no sound, even during movement.",,,
7/10/16 0:00,USA,Highway I-40 Truck parking,AR,Unknown,Very bright flying object there ten second then gone instantly,35.0840313,-92.4174169,POINT(-92.4174169 35.0840313)
6/10/16 0:00,USA,Columbus,OH,Triangle,In the S sky a blk triangular craft flew R to L then switched dir. and ,39.9622601,-83.0007064,POINT(-83.0007064 39.9622601)
,,,,,darted S and out of view… ((anonymous report)),,,
6/10/16 23:00,USA,Antlers,OK,Light,Seemed like just another star but then looked like a spotlight rolling and ,34.231212,-95.6202475,POINT(-95.6202475 34.231212)
,,,,,was extremely Bright...then went back to a twinkle.,,,
6/10/16 21:50,USA,Union,NJ,Oval,"Saw a red oval light in the sky over my house at 10:52pm on 10/6/16, it ",40.6652251,-74.3045276,POINT(-74.3045276 40.6652251)
,,,,,"looked like it was going to collid with a plane, in an instant",,,
6/10/16 21:00,USA,Whitefish,MT,Fireball,"((HOAX??)) Amber orb floating east of Whitefish Lake, moving towards ",48.4107966,-114.3346264,POINT(-114.3346264 48.4107966)
,,,,,backroad to blue moon. ((anonymous report)),,,
6/10/16 20:24,USA,El Cajon,CA,Unknown,I noticed two lights traveling from West to east. Leading light was ,32.7947731,-116.9625268,POINT(-116.9625268 32.7947731)
,,,,,"constant green(no flashing), trailing light was an intermittently f",,,
6/10/16 20:00,USA,Saylorsburg,PA,Fireball,"Approx. 4 seconds, a bright thick streak of light in sky & is low. bottom ",40.8952667,-75.3233922,POINT(-75.3233922 40.8952667)
,,,,,tip explodes bright white light & bits burst out & then gone,,,
6/10/16 20:00,USA,Lower Burrell,PA,Triangle,"Low, slow and silent unidentifiable flying object.",40.5882821,-79.7298186,POINT(-79.7298186 40.5882821)
6/10/16 14:30,USA,Columbus,GA,Circle,"Round, shiny objects flying in formation moved in ways not consistent with ",32.4609764,-84.9877093,POINT(-84.9877093 32.4609764)
,,,,,"aircraft, balloons or anything else.",,,
6/10/16 9:15,USA,South Berwick,ME,Light,"the 1st object was flashing red, white, and green light. It was not moving ",43.2345292,-70.8095017,POINT(-70.8095017 43.2345292)
,,,,,"at all. It was near Mt, Aggementicus. It had another to the",,,
9/12/16 19:00,USA,Tewksbury,MA,Triangle,"On 495 N, caught sight of two unusually bright lights as I was sitting in ",42.6106479,-71.2342247,POINT(-71.2342247 42.6106479)
,,,,,the front passenger seat on the ride home. Kept my eyes fixa,,,
6/10/16 5:45,USA,Torrington,CT,Triangle,"A triangular shaped object flying over Torrington, CT.",37.5800421,-122.0353035,POINT(-122.0353035 37.5800421)
6/10/16 4:00,USA,Grandview,WA,Circle,Flash blue and pink. Hovered up and down. My daughter said she saw ,46.2509653,-119.9017048,POINT(-119.9017048 46.2509653)
,,,,,something outside her window. ((anonymous report)),,,
,,,,,,,,
,,,,,Its,,,
6/10/16 1:07,CANADA,Ottawa,ON,Flash,"Faint tiny red flashing star gets bigger, then moves from West to North, ",45.4210328,-75.6900218,POINT(-75.6900218 45.4210328)
,,,,,"then flies directly over city of Ottawa, ON.",,,
6/10/16 0:00,USA,Slate Hill,NY,Sphere,"Hovering UFO is observed multiple times in Slate Hill, NY. ((NUFORC Note: ",41.3909274,-74.476547,POINT(-74.476547 41.3909274)
,,,,,"We suspect a ""twinkling"" star. PD))",,,
5/10/16 0:00,USA,Poland,ME,Sphere,Round bright white lights followed by orange double paneled lights in the ,44.060946,-70.3942109,POINT(-70.3942109 44.060946)
,,,,,"same spot! Then, flashing smaller white light directed at me",,,
5/10/16 22:35,USA,Lake Elmo,MN,Circle,Teal colored light ring sighted on a low altitude straight flight path for ,44.9957998,-92.8793767,POINT(-92.8793767 44.9957998)
,,,,,"30 plus seconds east of St. Paul, MN.",,,
5/10/16 22:30,USA,Howell,NJ,Cigar,Bar shaped ufo with three bright lights across.,40.1659101,-74.1911587,POINT(-74.1911587 40.1659101)
5/10/16 22:20,USA,Ticonderoga,NY,Rectangle,No noise at all.,43.848889,-73.4233469,POINT(-73.4233469 43.848889)
5/10/16 21:25,USA,Port Richey,FL,Disk,Erratic moments green and red lights.,28.2716755,-82.719545,POINT(-82.719545 28.2716755)
5/10/16 20:00,USA,Florence,AL,Diamond,My wife and I witnessed a ufo in the west sky.,29.425683,-98.4674859,POINT(-98.4674859 29.425683)
,,,,,,,,
,,,,,A lady stopped her car and said she saw it The night before. We watched for ,,,
,,,,,20 minute,,,
9/12/16 16:30,USA,Newport,ME,Disk,Sighted a disk/saucer shaped craft with rotating lights at 4:30 heading to ,44.8353424,-69.2739364,POINT(-69.2739364 44.8353424)
,,,,,Newport.,,,
5/10/16 20:00,USA,Destin,FL,Chevron,Chevron-shaped glowing vapor cloud moving across night sky. ((anonymous ,30.3935337,-86.4957833,POINT(-86.4957833 30.3935337)
,,,,,report)),,,
5/10/16 19:50,USA,Orem,UT,Circle,Bright yellow light skipped across sky than disappeared in a green glowing ,40.2975185,-111.6944684,POINT(-111.6944684 40.2975185)
,,,,,flash,,,
5/10/16 10:00,USA,Greenfield,OH,Cigar,Clear day sky. Observe white/silver cigar object resembling (size) the ,39.3520084,-83.3826927,POINT(-83.3826927 39.3520084)
,,,,,"KC-10 but no markings, no tail, no wings, no sound, no contrail,",,,
4/10/16 23:15,USA,Williamsport,PA,Flash,Standing on my deck looking across the river I multiple flashes that were ,41.2493292,-77.002767,POINT(-77.002767 41.2493292)
,,,,,super bright and unform. Very short lived.,,,
4/10/16 22:46,USA,Fort Washington,MD,Fireball,"Large green fireball seen falling from sky over Fort Washington, Maryland. ",38.7125305,-77.0124597,POINT(-77.0124597 38.7125305)
,,,,,((NUFORC Note: Probable meteor. Video. PD)),,,
4/10/16 22:37,USA,Boonsboro,MD,Fireball,Bright light came straight down with no lateral movement stright down. Had ,39.5061332,-77.6524249,POINT(-77.6524249 39.5061332)
,,,,,sparks following it.,,,
4/10/16 22:35,USA,Hilton,NY,Circle,"At 10:35 pm there was a bright yellow light in sky to the S of Hilton, NY. ",43.288116,-77.7933419,POINT(-77.7933419 43.288116)
,,,,,The light was so bright I saw could tell there was somet,,,
4/10/16 22:16,USA,Hanover,MI,Fireball,Black Apache style helicopter chasing and orange ball of light.,39.8063247,-76.9842734,POINT(-76.9842734 39.8063247)
4/10/16 21:26,USA,Wappingers Falls,NY,Light,Bright White Light Hovering Low in the sky.,41.5965635,-73.9112102,POINT(-73.9112102 41.5965635)
4/10/16 20:00,USA,Frederica,DE,Disk,Huge disk shaped object.,39.0090017,-75.4657541,POINT(-75.4657541 39.0090017)
9/12/16 5:25,CANADA,Truro,NS,Oval,Oval/ 1st was oval yellowsish red white glowing and gone. 2nd obj was white ,45.366668,-63.3000059,POINT(-63.3000059 45.366668)
,,,,,light like extremely brighter than a star.,,,
4/10/16 19:30,USA,Brentwood,NH,Circle,Orange glowing orb flame-like no sound very slow 400 feet above stayed at ,42.9786981,-71.0728368,POINT(-71.0728368 42.9786981)
,,,,,elevation for 4 minutes then rose and dimmed and disappeared,,,
4/10/16 18:15,USA,Fairbanks,AK,Unknown,Husband and wife report unusual launching of U. S. military aircraft. a/c ,64.837845,-147.7166749,POINT(-147.7166749 64.837845)
,,,,,headed north at high speed.,,,
4/10/16 4:00,USA,Branson,MO,Light,"Stepped outside on balcony on golf course, saw white light in sky blinking ",36.6440399,-93.2171329,POINT(-93.2171329 36.6440399)
,,,,,and hovering. ((NUFORC Note: Possible star?? PD)),,,
4/10/16 0:25,USA,Carrboro,NC,Sphere,"While driving down 54 at midnight I witnessed a low-flying, fast-moving ",35.9101438,-79.0752894,POINT(-79.0752894 35.9101438)
,,,,,spherical green light source.,,,
3/10/16 20:30,USA,North Vernon,IN,Other,"Plane like with two white lights and one red. 2 hours of same route in sky, ",39.006165,-85.6235795,POINT(-85.6235795 39.006165)
,,,,,varying speeds,,,
3/10/16 20:00,USA,Laurel,DE,Formation,red lights over Laurel.,38.5565041,-75.571314,POINT(-75.571314 38.5565041)
3/10/16 18:00,USA,Ellsworth,ME,Sphere,"This is further info, correcting a previous report. (1) Object sighted was ",44.543505,-68.4201049,POINT(-68.4201049 44.543505)
,,,,,"spherical, shiny, with downward ""jet trails"" which",,,
3/10/16 18:00,USA,Ellsworth,ME,Triangle,Pair of linked triangles with light columns extending straight downward a ,44.543505,-68.4201049,POINT(-68.4201049 44.543505)
,,,,,precise distance; not drifting or bobbing,,,
3/10/16 17:00,USA,Saginaw,MN,Rectangle,Very big object with very bright lights hovering and fliping up side down ,46.8591081,-92.4443565,POINT(-92.4443565 46.8591081)
,,,,,and seeing alot of very small lights on the object,,,
3/10/16 14:25,USA,Coshocton,OH,Other,A weird object in the sky shaped like a T and flew perpendicular rather ,40.2905684,-81.927144,POINT(-81.927144 40.2905684)
,,,,,than parallel to the ground,,,
8/12/16 19:30,USA,Jerseyville,IL,Triangle,Near perfect triangle 3 solid huge lights.,39.1200471,-90.3284478,POINT(-90.3284478 39.1200471)
3/10/16 7:25,USA,Millington,TN,Disk,"((HOAX??)) Driving, noticed glowing craft in sky.",35.3414745,-89.8973083,POINT(-89.8973083 35.3414745)
3/10/16 5:00,USA,Belchertown,MA,Fireball,Very loud disturbance. Three red fireballs low in the sky descending slowly ,42.2722584,-72.39441289,POINT(-72.3944128905602 42.2722584)
,,,,,overhead.,,,
3/10/16 4:00,USA,Adairsville,GA,Circle,"It hovered in one area for more than 30 min., constantly blinking. It ",34.3687021,-84.9341092,POINT(-84.9341092 34.3687021)
,,,,,looked like it had multiple lights. ((NUFORC Note: Star? PD)),,,
3/10/16 3:00,USA,Long Beach,CA,Light,"Hovering flickering lights. ((NUFORC Note: We suspect ""twinkling"" stars. ",33.78538945,-118.1580492,POINT(-118.158049215311 33.78538945)
,,,,,PD)),,,
2/10/16 22:45,USA,Kettering,OH,Unknown,I saw two huge beams of light going from the sky to the ground.,39.6895036,-84.1688273,POINT(-84.1688273 39.6895036)
2/10/16 22:00,USA,Sioux Falls,SD,Disk,Out of no where a blinking light in the shPe of the saucer appears 10 ,43.5499749,-96.7003269,POINT(-96.7003269 43.5499749)
,,,,,seconds later it was gone. ((anonymous report)),,,
2/10/16 21:00,USA,Des Moines,IA,Light,"Point of light that is strobing red, blue and possible green and orange and ",41.5910641,-93.6037148,POINT(-93.6037148 41.5910641)
,,,,,seems in a stable position.,,,
2/10/16 20:45,USA,Murphy,TX,Rectangle,Sitting in backyard with my wife facing the South sky. We both noticed a ,33.0151208,-96.6130477,POINT(-96.6130477 33.0151208)
,,,,,dull bronze colored rectangle heading in a straight line from,,,
2/10/16 19:45,USA,Bristol,TN,Cone,Orange comet shaped fireball changing into just fireball rapidly climbing. ,36.5945034,-82.1885211,POINT(-82.1885211 36.5945034)
,,,,,Sighted near Bristol Motor Speedway.,,,
2/10/16 17:45,CANADA,Regina,SK,Disk,Bright disk-shaped object in the sky,50.4480951,-104.615818,POINT(-104.615818 50.4480951)
8/12/16 17:30,USA,St. Clair,MO,Light,Multiple colerd light on more than one occasion. ((anonymous report)),38.0592942,-93.7945455,POINT(-93.7945455 38.0592942)
2/10/16 11:00,USA,Washington D.C.,MD,Other,I have never reported a sighting before so please forgive missing details. ,38.899265,-77.1546512,POINT(-77.1546512 38.899265)
,,,,,I was walking home Sunday morning around 1100hrs in northwes,,,
2/10/16 10:44,USA,Reno,NV,Unknown,"The unidentified objects seem to have a black bottom, white top in color. ",39.52927,-119.8136743,POINT(-119.8136743 39.52927)
,,,,,There were 15 to 25 traveling upward in a helix pattern,,,
2/10/16 4:50,USA,Watsonville,CA,Unknown,Lights in sky I thought it was a shooting star,36.9092773,-121.752907,POINT(-121.752907 36.9092773)
2/10/16 4:30,USA,Houston,TX,Circle,"Houston, TX, sighting of strange lights and power/signal outage.",29.675779,-95.40215851,POINT(-95.4021585102112 29.675779)
2/10/16 2:00,USA,Woodruff,SC,Light,"Mysterious bright large, bright light the. Disappeared and smaller ones ",34.7395701,-82.0370465,POINT(-82.0370465 34.7395701)
,,,,,appeared and disappeared.,,,
2/10/16 1:30,CANADA,Winnipeg,MB,Light,Strange orange light flew overhead.,49.8833343,-97.166674,POINT(-97.166674 49.8833343)
2/10/16 1:11,USA,Lynnwood,WA,Other,Red green and white pulsating lights hovering and various altitudes.,47.8278656,-122.3053931,POINT(-122.3053931 47.8278656)
2/10/16 0:45,USA,Iowa City,IA,Light,"A group of red lights flying across the sky, rising from the horizon one at ",41.6612561,-91.5299105,POINT(-91.5299105 41.6612561)
,,,,,"a time,increasing in altitude and disappearing out of view.",,,
2/10/16 0:30,USA,Mena,AR,Other,"Large, hexagonal craft accompanied by a much smaller craft tailing it.",34.5862171,-94.2396553,POINT(-94.2396553 34.5862171)
2/10/16 0:14,USA,Waverly,TN,Oval,I just walked out side on this beautiful clear night with stars but no ,36.0829998,-87.7945851,POINT(-87.7945851 36.0829998)
,,,,,moon. Noticed a dancing light in the sky due EAST .. The shape a,,,
8/12/16 17:15,USA,Cromwell,CT,Circle,2 Crafts. ((anonymous report)),41.2861336,-72.3557585,POINT(-72.3557585 41.2861336)
1/10/16 0:00,USA,Santa Rosa Beach,FL,Teardrop,Falling ball of fire out of the clear night sky,30.3960324,-86.2288321,POINT(-86.2288321 30.3960324)
1/10/16 22:20,USA,North Mankato,MN,Chevron,"Watching the stars through binoculars. Black,silent chevron, triangle flew ",44.1732996,-94.033845,POINT(-94.033845 44.1732996)
,,,,,into my vision. It went north to south. The underside of it,,,
1/10/16 22:15,USA,Long Island,NY,Fireball,"((HOAX??)) 3 fireball ufos seen above Elmont, Long Island. ((anonymous ",40.8517821,-73.09918527,POINT(-73.099185269027 40.8517821)
,,,,,report)),,,
1/10/16 22:00,USA,Laona,WI,Unknown,flashing lights above northeast Wisconsin. ((NUFORC Note: We suspect a ,45.560864,-88.6724569,POINT(-88.6724569 45.560864)
,,,,,"""twinkling"" star. PD))",,,
1/10/16 22:00,USA,Whiting,IN,Circle,Orange lights moving up down east and west. Then met up to form a circle.,41.6797578,-87.4944872,POINT(-87.4944872 41.6797578)
1/10/16 22:00,USA,Central,LA,Fireball,Flying fireball,34.2248222,-87.0091741,POINT(-87.0091741 34.2248222)
1/10/16 22:00,USA,Bend,OR,Light,"Saw a flickering light that changed colors (white, red, green, blue). It ",44.0581728,-121.3153095,POINT(-121.3153095 44.0581728)
,,,,,"stayed in the same general area, but would zig zag and dart oc",,,
1/10/16 22:00,USA,Kenner,LA,Circle,Group of shape forming lighted objects in sky,29.9942265,-90.2417805,POINT(-90.2417805 29.9942265)
1/10/16 21:45,USA,Irvine,CA,Fireball,"red, green and yellow fireball over Irvine/Newport Beach area tonight",33.6856969,-117.8259818,POINT(-117.8259818 33.6856969)
1/10/16 21:30,USA,Monetta,SC,Other,We were watching a movie at the drive in when I got bored and started star ,33.8501416,-81.6095492,POINT(-81.6095492 33.8501416)
,,,,,gazing. I noticed an object moving across the sky. It was li,,,
8/12/16 16:00,USA,Atlanta,GA,Sphere,Seeing orange orbs on the ground and in the air as the airplane was taking ,33.7490987,-84.3901848,POINT(-84.3901848 33.7490987)
,,,,,off unbelievable!,,,
1/10/16 21:00,USA,Yukon,OK,Flash,"Quick flash reflecting in parking lot, no sound or lightning.",35.5067259,-97.7625385,POINT(-97.7625385 35.5067259)
1/10/16 20:48,USA,Bucksport,ME,Chevron,Three large bright lights hovering for 2-3 minutes.,44.5736852,-68.7955878,POINT(-68.7955878 44.5736852)
1/10/16 20:43,USA,Chula Vista,CA,Triangle,((NUFORC Note: No information provided by witness. PD)),32.6400541,-117.0841954,POINT(-117.0841954 32.6400541)
1/10/16 20:41,USA,Plano,TX,Light,Royal blue blinking lights in formation across North Dallas sky.,33.0136764,-96.6925095,POINT(-96.6925095 33.0136764)
1/10/16 20:35,USA,San Jose,CA,Teardrop,Bright greenish orb with reddish tail fell at 45 degree angle over West San ,37.3361905,-121.8905832,POINT(-121.8905832 37.3361905)
,,,,,Jose.,,,
1/10/16 20:35,USA,Millsap,TX,Disk,"Bright blue flying saucer near Stephenville, TX, with a small plane ",32.7481864,-98.0092092,POINT(-98.0092092 32.7481864)
,,,,,following it.,,,
1/10/16 20:30,USA,Candor,NC,Cylinder,@ approximately 8:30 PM when I noticed a large aircraft about the size of a ,35.2951421,-79.7453163,POINT(-79.7453163 35.2951421)
,,,,,small sedan hovering just above nearby trees.,,,
1/10/16 20:10,USA,Havre de Grace,MD,Circle,"Three orange glows appeared in the sky in Havre de Grace, MD",39.5489964,-76.0914717,POINT(-76.0914717 39.5489964)
1/10/16 20:00,USA,Graham,WA,Light,Bright white orb of light lasting several minutes.,47.0395996,-122.2785728,POINT(-122.2785728 47.0395996)
1/10/16 20:00,USA,High Ridge,MO,Oval,Long blimp like shaped ufo.,38.4589432,-90.5365125,POINT(-90.5365125 38.4589432)
7/12/16 0:00,USA,Saint Augustine,FL,Circle,"I was in my car driving South on San Marco Blvd in St. Augustine, Fl, ",29.8946952,-81.3145394,POINT(-81.3145394 29.8946952)
,,,,,Wednesday evening around 7. I noticed a foreign light in the sky,,,
1/10/16 19:45,USA,Grand Blanc,MI,Light,Bright orange lights in sky flying east to west.,42.9275277,-83.6299517,POINT(-83.6299517 42.9275277)
1/10/16 19:45,USA,Denver,CO,Formation,5 orange lights flying in formation in the sky.,39.7348381,-104.965327,POINT(-104.965327 39.7348381)
1/10/16 19:30,USA,Glenrock,WY,Disk,"Disc object southwest of Glenrock, Wy.",35.342101,-119.0727129,POINT(-119.0727129 35.342101)
1/10/16 19:30,USA,Tampa,FL,Light,Bright blue light hovering over Tampa.,27.9518491,-82.4563971,POINT(-82.4563971 27.9518491)
1/10/16 19:30,USA,Phoenix,AZ,Other,7 objects appearing to be fire going over phoenix az sky at around 730 pm ,33.4485866,-112.0773455,POINT(-112.0773455 33.4485866)
,,,,,on oct.1 2016,,,
1/10/16 19:00,USA,Boulder,CO,Triangle,The sky was lit but the sun was down. You could see the perfect outline of ,40.102555,-105.3632078,POINT(-105.3632078 40.102555)
,,,,,"a triangle, no lights on , perhaps 50-75ft from the ground.",,,
1/10/16 19:00,USA,Sullivan,IL,Fireball,Me and my father were watching the space station on 10/1/2016. I walk into ,41.7156311,-74.7804322,POINT(-74.7804322 41.7156311)
,,,,,the house as my dad calls me out to see this burning ball th,,,
1/10/16 18:15,USA,Fernley,NV,Cylinder,"Cylindrical silver craft, no lights, no sound, stationary, grew super ",39.5483805,-119.2144685,POINT(-119.214468455863 39.5483805)
,,,,,"bright, then dimmed and disappeared.",,,
1/10/16 16:20,USA,West Park,PA,Triangle,Three solid lights with no other blinking lights or sound covering a angle ,40.4742354,-80.0775554,POINT(-80.0775554 40.4742354)
,,,,,of sight of pi/2 for the duration of the event,,,
1/10/16 14:50,USA,Orlando,FL,Triangle,"Triangle craft above Orlando, emitting an energy beam underneath it.",28.5479786,-81.41278409,POINT(-81.4127840856302 28.5479786)
7/12/16 23:30,USA,Anchorage,AK,Flash,Three stationary light pulses over the Chugach range.,61.2163129,-149.8948522,POINT(-149.8948522 61.2163129)
1/10/16 12:01,USA,Madera,CA,Unknown,Was laying in bed thought I heard fireworks then all of a sudden louder ,37.1716264,-119.773799,POINT(-119.773799 37.1716264)
,,,,,noise tree rumbling and sounded like something ran across the t,,,
1/10/16 9:15,USA,Geneva,NY,Flash,"Green flash in Geneva, NY. ((anonymous report))",42.8689552,-76.9777435,POINT(-76.9777435 42.8689552)
1/10/16 8:33,USA,Lemitar,NM,Fireball,6 Orange orbs in the sky in Lemitar.,34.1597887,-106.910306,POINT(-106.910306 34.1597887)
1/10/16 8:00,USA,Blue Ridge,GA,Other,A bright round circular red orange light went straight up the mountain side ,34.863972,-84.3240869,POINT(-84.3240869 34.863972)
,,,,,hovered around dipped and went back up to dip again and d,,,
1/10/16 6:00,USA,Recluse,WY,Light,"A bright color changing light in night sky. Flying at high speed, in all ",44.7411124,-105.7080576,POINT(-105.7080576 44.7411124)
,,,,,directions. ((anonymous report)) ((NUFORC Note: Star? PD)),,,
1/10/16 5:30,USA,Ferndale,WA,Light,Blinking light in the sky with unusual movements.,48.8466698,-122.5897234,POINT(-122.5897234 48.8466698)
1/10/16 5:30,USA,Kenner,LA,Circle,"I saw 9 objects flying in the sky,they were changing shapes and then they ",29.9942265,-90.2417805,POINT(-90.2417805 29.9942265)
,,,,,disappear in the sky. ((anonymous report)),,,
1/10/16 3:30,USA,St. Augustine,FL,Light,"I was outside at work, and there were 3 lights in the sky going North to ",29.8946952,-81.3145394,POINT(-81.3145394 29.8946952)
,,,,,"South...started in a straight line, then separated with the ce",,,
1/10/16 2:00,USA,Minneapolis,MN,Changing,Odd lights in south Minneapolis.,44.9772995,-93.2654691,POINT(-93.2654691 44.9772995)
9/30/16 23:22,USA,Naples,FL,Changing,Flowing lights over Naples.,26.1420358,-81.7948102,POINT(-81.7948102 26.1420358)
12/19/16 6:50,USA,Town and Country,MO,Light,"I was heading N on Barrett Stat. Rd, saw glimmering in the sky N of ",38.6122751,-90.4634531,POINT(-90.4634531 38.6122751)
,,,,,Manchester slowly drifting. many different colours.,,,
7/12/16 22:50,USA,Napili,HI,Fireball,Large bright fireball.,20.9717546,-156.6756045,POINT(-156.675604521001 20.9717546)
9/30/16 23:15,USA,Marlton,NJ,Unknown,Weird humming noise in the middle of the night.,39.8912248,-74.9218324,POINT(-74.9218324 39.8912248)
9/30/16 21:34,USA,Honolulu,HI,Rectangle,"While walking at Ala Moana Beach park, other evening. We observed A bright ",21.304547,-157.8556763,POINT(-157.8556763 21.304547)
,,,,,"reddish object floating and drifting in the skies, out ove",,,
9/30/16 21:00,USA,Mooresville,NC,Sphere,spinning sphere with colors and more details closeup 42x zoom,35.5848596,-80.8100723,POINT(-80.8100723 35.5848596)
9/30/16 20:45,CANADA,Sault Ste. Marie,ON,Circle,Orange circle moving quickly...,46.52391,-84.3200679,POINT(-84.3200679 46.52391)
9/30/16 20:30,USA,Arvada,CO,Formation,7-9 glowing white lights in arrow formation flying east to west fast and low,39.8211225,-105.2207429,POINT(-105.220742890446 39.8211225)
9/30/16 20:00,USA,Pittsfield,ME,Light,Bright Light drifting across sky turns reddish and disappears in heavens,44.78281,-69.3834689,POINT(-69.3834689 44.78281)
9/30/16 19:30,USA,Oxnard,CA,Unknown,"Oxnard, CA, Bright white lighted craft flies in from Pacific ocean and ",34.1976308,-119.1803817,POINT(-119.1803817 34.1976308)
,,,,,flies back out to ocean 3 seperate times changing colors,,,
9/30/16 19:10,USA,Eastvale,CA,Light,White orb.,33.9766799,-117.5598443,POINT(-117.5598443 33.9766799)
9/30/16 19:00,USA,Cape Coral,FL,Other,I saw a boomerang shape ufo that had no sound and camouflage into the sky. ,26.6058996,-81.9807339,POINT(-81.9807339 26.6058996)
,,,,,I could only see the outline,,,
9/30/16 15:30,USA,Las Vegas,NV,Oval,"((NUFORC Note: No information provided by source, who elects to remain ",36.1662859,-115.1492249,POINT(-115.1492249 36.1662859)
,,,,,anonymous. PD)),,,
7/12/16 22:10,USA,Bellingham,WA,Fireball,Meteor like white decending east to west.,48.754402,-122.4788601,POINT(-122.4788601 48.754402)
9/30/16 7:10,USA,Weiser,ID,Light,Saw small bright blue strobe traveling at a fast rate South of Manns Creek,44.2509976,-116.9693326,POINT(-116.9693326 44.2509976)
9/29/16 23:30,USA,Sanborn,NY,Oval,"3 orbs dancing/chasing each other in circles in Sanborn, NY. ((anonymous ",43.136723,-78.884761,POINT(-78.884761 43.136723)
,,,,,report)),,,
9/29/16 22:10,USA,Phenix City,AL,Egg,I was on my break for work. I noticed that the sky looked like it drop to ,32.4709761,-85.0007652,POINT(-85.0007652 32.4709761)
,,,,,the earth because the stars were so close.,,,
9/29/16 22:00,USA,Logan,KS,Light,As we were walking from our RV to the house I noticed a bright light. I ,38.9058216,-101.155238,POINT(-101.155238 38.9058216)
,,,,,"thought it was a shooting star at first, as it was a perfect fa",,,
9/29/16 21:00,USA,Kennewick,WA,Unknown,Southern sky lit up in bright flash.,46.2112458,-119.1372337,POINT(-119.1372337 46.2112458)
9/29/16 21:00,USA,North Sioux City,SD,Light,"White light ball moving south to north, then up.",42.5272168,-96.4830863,POINT(-96.4830863 42.5272168)
9/29/16 20:00,USA,Fresno,CA,Light,Bright neutral white light seen travelling several miles across Fresno ,36.7295295,-119.7088612,POINT(-119.708861160756 36.7295295)
,,,,,until fading out. ((anonymous report)),,,
9/29/16 19:16,USA,Marietta,GA,Cylinder,"Cylinder with bi-plane type wings or appendages, reflected setting sun in a ",33.9528472,-84.5496147,POINT(-84.5496147 33.9528472)
,,,,,brilliant golden color.,,,
9/29/16 19:15,USA,Marietta,GA,Changing,Daytime (sunset) sighting of an object that looked similar to a space ,33.9528472,-84.5496147,POINT(-84.5496147 33.9528472)
,,,,,station.,,,
9/29/16 11:45,USA,Idyllwild,CA,Circle,Black dot moving fast on a sunny day that disappeared behind clouds on ,33.7400209,-116.7189074,POINT(-116.7189074 33.7400209)
,,,,,9/29/16 at 11:45 am. Duration was 3-5 seconds.,,,
7/12/16 19:15,USA,Snellville,GA,Circle,Moving light sphere. ((NUFORC Note: We suspect a sighting of a star or ,33.857328,-84.0199107,POINT(-84.0199107 33.857328)
,,,,,planet. PD)),,,
9/29/16 9:00,USA,Canby,OR,Rectangle,"A rectangular object of light, very small and fast captured on video.",45.2629088,-122.6925982,POINT(-122.6925982 45.2629088)
9/29/16 2:30,USA,Tampa,FL,Flash,Was looking towards the Orion belt night sky and saw flashing lights . I ,27.9518491,-82.4563971,POINT(-82.4563971 27.9518491)
,,,,,thought no big deal an airplane but no the flashing light did,,,
9/29/16 0:00,USA,Lake Charles,LA,Oval,We saw flashing objects in the sky having an oval shape and also one with ,30.2265949,-93.2173758,POINT(-93.2173758 30.2265949)
,,,,,other flashing lights forming a triangle.,,,
9/28/16 23:00,USA,Overland Park,KS,Fireball,I saw a MASSIVE white object fall from the sky.,38.9822282,-94.6707916,POINT(-94.6707916 38.9822282)
9/28/16 22:00,USA,Boulder,CO,Triangle,Triangular moved N to S a slow slow steady speed very dim lights that could ,40.102555,-105.3632078,POINT(-105.3632078 40.102555)
,,,,,be mistaken for stars at a distance ((anonymous report)),,,
9/28/16 21:02,USA,Delano,CA,Other,The object was flying S to N in a linear direction. No beacon lights and it ,35.7688425,-119.2470535,POINT(-119.2470535 35.7688425)
,,,,,disappeared in the atmosphere. ((anonymous report)),,,
9/28/16 21:00,USA,Rexburg,ID,Triangle,Triangle-shaped object with lights emitting in each corner of the object ,43.8235163,-111.7870221,POINT(-111.7870221 43.8235163)
,,,,,flies overhead.,,,
9/28/16 21:00,CANADA,Ottawa,ON,Triangle,"I looked up and gasped, as I saw three lights on three corners forming a ",45.4210328,-75.6900218,POINT(-75.6900218 45.4210328)
,,,,,triangle. ((anonymous report)),,,
9/28/16 21:00,USA,Black Mountain,NC,Unknown,"Bright flashing, shimmering, unmoving and color changing light seen for 15 ",35.6178951,-82.3212301,POINT(-82.3212301 35.6178951)
,,,,,minutes.,,,
9/28/16 20:44,USA,Louisville,KY,Sphere,Approximately 20:44 on Wednesday 9/28/2016 one object observed moving from ,38.2542376,-85.7594069,POINT(-85.7594069 38.2542376)
,,,,,Approximately 224° SW toward 44° NE moving too slow to be a,,,
7/12/16 18:53,USA,Las Vegas,NV,Other,Pyramid or triangle or similar shape.. maybe rotating silent floating over ,36.1662859,-115.1492249,POINT(-115.1492249 36.1662859)
,,,,,"us 95 and Decatur, going south.. south east.",,,
9/28/16 20:16,USA,Aurora,CO,Light,While in our backyard relaxing on the patio my girlfriend and I saw a round ,43.6963371,-98.572246,POINT(-98.572246 43.6963371)
,,,,,bright light heading from west to east at a moderate elevat,,,
9/28/16 20:16,USA,Aurora,CO,Circle,"We saw a bright light traveling E to west, at a moderate speed and ",43.6963371,-98.572246,POINT(-98.572246 43.6963371)
,,,,,elevation that lasted up to 2 min,,,
9/28/16 19:50,USA,Beaverton,OR,Disk,"The object was flying South, about as high as an airplane but looked ",45.4871723,-122.8037803,POINT(-122.8037803 45.4871723)
,,,,,different enough from a plane that it caught our eye and we contin,,,
9/28/16 14:30,USA,Littleton,CO,Diamond,it was broad daylight!,39.613321,-105.0166497,POINT(-105.0166497 39.613321)
9/28/16 13:59,USA,Dell Rapids,SD,Flash,I saw a blue and white flash of light that quickly fell to the earth while ,43.826084,-96.7061609,POINT(-96.7061609 43.826084)
,,,,,I was driving home from school.,,,
9/28/16 3:00,USA,Grand Rapids,MI,Sphere,Metallic sphere sitting motionless with sudden disappearance.,42.9632405,-85.6678638,POINT(-85.6678638 42.9632405)
9/27/16 22:30,USA,Redmond,OR,Unknown,"Dimly lit, gray, fast moving object.",44.2726203,-121.1739211,POINT(-121.1739211 44.2726203)
9/27/16 22:00,USA,Warner Robins,GA,Light,Orange reddish object and white lights observed for 45 minutes.,32.598313,-83.62567691,POINT(-83.6256769145824 32.598313)
9/27/16 22:00,USA,Penfield,NY,Rectangle,I was heading south on Baird Road. I was right in front of the library on ,43.1303407,-77.4755509,POINT(-77.4755509 43.1303407)
,,,,,"that road, I looked up saw a bright white rectangle hoverin",,,
9/27/16 21:30,USA,Spokane,WA,Unknown,Two members of her family had seen two strange lights over Fairchild ,47.6588603,-117.4247133,POINT(-117.4247133 47.6588603)
,,,,,Airforce Base.,,,
7/12/16 18:20,USA,Riverdale,GA,Cylinder,"While standing outside smoking,my neighbors came to me and pointed out this ",33.5726113,-84.4132593,POINT(-84.4132593 33.5726113)
,,,,,"object that was bright like an airplane's headlights, but i",,,
9/27/16 21:30,USA,Keizer,OR,Formation,Formation of 3 reddish/orange colored lights flew over my house in a ,44.9958075,-123.0197172,POINT(-123.0197172 44.9958075)
,,,,,triangular formation. ((anonymous report)),,,
9/27/16 21:21,USA,Hoquiam,WA,Circle,A very bright light in the sky which I first assumed to be a star. Stayed ,46.980929,-123.8893349,POINT(-123.8893349 46.980929)
,,,,,"stationary for along time, then moved rapidly to the west.",,,
9/27/16 21:00,USA,Claremont,CA,Flash,Bright light expanded and then contracted to a pinprick of light before ,34.0966764,-117.7197784,POINT(-117.7197784 34.0966764)
,,,,,disappearing,,,
9/27/16 21:00,USA,St. Louis,MO,Flash,Flashes of Light,38.6272733,-90.1978888,POINT(-90.1978888 38.6272733)
9/27/16 21:00,USA,El Monte,CA,Circle,"Two glowing objects come out of the clouds in the night sky of El Monte, CA.",34.0751571,-118.0368489,POINT(-118.0368489 34.0751571)
9/27/16 20:50,USA,Missoula,MT,Fireball,"Seen by 2 people in Missoula, Montana, at approximately 23:50 there where 3 ",46.8700801,-113.9952795,POINT(-113.9952795 46.8700801)
,,,,,fireball looking crafts hovering with no sound.,,,
9/27/16 20:30,USA,New Britain,CT,Circle,"Above a house, stood stationary rapidly traveled westward. ((anonymous ",41.6804665,-72.822161,POINT(-72.822161 41.6804665)
,,,,,report)),,,
9/27/16 20:15,USA,West pittston,PA,Circle,At 8:15 p.m. I saw a circular object with 5 bright white lights coming ,41.3279106,-75.8007111,POINT(-75.8007111 41.3279106)
,,,,,Southeast going Northwest it made no sound and was flying very l,,,
9/27/16 19:50,USA,Beaverton,OR,Disk,We were headed east on Sexton Mountain Drive and I see this unusual ,45.4871723,-122.8037803,POINT(-122.8037803 45.4871723)
,,,,,"light/object flying in the sky. I tell my husband to pull over, gra",,,
9/27/16 18:30,USA,Somerville,NJ,Formation,In Nj on 287 north between exits 8 and 13. We saw 4 round shape object In a ,40.5742696,-74.6098799,POINT(-74.6098799 40.5742696)
,,,,,diagonal formation. We witnessed it for about 20 minutes d,,,
7/12/16 18:00,USA,Plymouth,MA,Light,Noticed large bright light traveling E towards the Atlantic. No flashing ,41.9584367,-70.6672576,POINT(-70.6672576 41.9584367)
,,,,,lights could be seen. Obj. slowed down dramatically .,,,
9/27/16 17:15,USA,Centennial,CO,Circle,"We saw a small white circular object travel east to west, stop and hover, ",39.5680644,-104.9778307,POINT(-104.97783071285 39.5680644)
,,,,,then move upward out of sight.,,,
9/27/16 15:10,USA,Amarillo,TX,Teardrop,"Round, Shiny, almost transparent, still object in the sky, facing West",35.2072185,-101.8338245,POINT(-101.8338245 35.2072185)
9/27/16 13:10,USA,Monterey,CA,Disk,"While driving, I noticed a large disc shaped metallic object in the sky ",36.600256,-121.8946387,POINT(-121.8946387 36.600256)
,,,,,above Monterey Bay. The metal was shiny and reflective.,,,
9/27/16 10:30,USA,Bernville,PA,Triangle,Triangle shaped aircrafts with no sound bright lights. ((anonymous report)),40.433426,-76.1121647,POINT(-76.1121647 40.433426)
9/27/16 6:50,USA,Navarre,OH,Light,4 lights in elongated diamond shape. ((anonymous report)),40.7248607,-81.5218426,POINT(-81.5218426 40.7248607)
9/27/16 5:30,USA,Newport,AR,Light,moving light in the sky,35.6048018,-91.281795,POINT(-91.281795 35.6048018)
9/27/16 4:45,USA,Moss Point,MS,Light,Huge solided red light in the sky. ((anonymous report)),30.4115881,-88.53446,POINT(-88.53446 30.4115881)
9/27/16 3:00,USA,Palm Beach Gardens,FL,Light,I woke up to smoke a cigarette outside double tree hotel balcony that faces ,26.84176195,-80.13530871,POINT(-80.1353087134005 26.84176195)
,,,,,pga blvd when I saw a light flickering underneath a lamp po,,,
9/27/16 1:45,USA,Lathrop,MO,Unknown,Bright light was stationary in the sky and then took off at an incredible ,39.5483354,-94.329946,POINT(-94.329946 39.5483354)
,,,,,speed before it disappeared completely. ((anonymous report)),,,
9/27/16 1:42,USA,Roseville,CA,Changing,3-15 lights with iridescent (rainbow-colored) tails coiling and whipping ,38.72338,-121.1858782,POINT(-121.185878161131 38.72338)
,,,,,from glowing center into 'symbol' like shapes.,,,
7/12/16 7:00,USA,Orlando,FL,Fireball,I was outside on back porch and saw a bright red orange color looked like a ,28.5479786,-81.41278409,POINT(-81.4127840856302 28.5479786)
,,,,,fire ball or exploded something in the air it was eastward.,,,
9/27/16 1:30,USA,North Pole,AK,Unknown,9/27/16 1:30 am & 10/6/16 11:00 pm North Pole AK Unknown 15-20 Big Bright ,64.750922,-147.349312,POINT(-147.349312 64.750922)
,,,,,Star 10/7/16. ((anonymous report)),,,
9/27/16 1:00,USA,Cowiche,WA,Fireball,At 1:15 am my husband and I were sitting on our porch and saw a fire ball ,46.6698469,-120.7122934,POINT(-120.7122934 46.6698469)
,,,,,appear from the south very low lower than most air planes it,,,
9/26/16 0:00,USA,Palm Beach Garden,FL,Light,I was stopped at a red light and noticed bright lights in the sky. I took ,26.84176195,-80.13530871,POINT(-80.1353087134005 26.84176195)
,,,,,more notice when the objects in sky began to multiply and glo,,,
9/26/16 23:59,USA,Orange Park,FL,Triangle,11-12 orange colored triangular objects sighted for about 2 minutes around ,30.1660736,-81.7064839,POINT(-81.7064839 30.1660736)
,,,,,"midnight in Orange Park, Fl. On Sept. 26, 2016",,,
9/26/16 23:40,USA,Buffalo,NY,Unknown,"Cargo fleet through Buffalo, NY, 14204 near Canadian border.",42.8867166,-78.8783921,POINT(-78.8783921 42.8867166)
9/26/16 23:26,USA,Providence,RI,Unknown,Extremely fast (hypersonic+) aircraft (UFO) captured on Live TV over ,41.8239891,-71.4128342,POINT(-71.4128342 41.8239891)
,,,,,"Providence, RI....Please Help me ID this thing.",,,
9/26/16 21:50,USA,Dallas,TX,Light,During the dallas cowboy football game on tv a camera pointed at the dallas ,32.7762719,-96.7968558,POINT(-96.7968558 32.7762719)
,,,,,skyline picked up an object of light moving from rt to left,,,
9/26/16 21:20,USA,Savannah,GA,Fireball,Red spherical light near Bull River. ((anonymous report)),32.0835407,-81.0998341,POINT(-81.0998341 32.0835407)
9/26/16 20:00,USA,Napoleonville,LA,Triangle,"Large triangular object with blue/white, green and orange lights",29.9404803,-91.0248213,POINT(-91.0248213 29.9404803)
9/26/16 19:35,USA,Goleta,CA,Other,Jet with landing lights traveling sideways. ((anonymous report)),34.4358295,-119.8276388,POINT(-119.8276388 34.4358295)
6/12/16 20:45,USA,High Point,NC,Other,"Unique Craft Spotted above trees, still motion, strange shape, just ",35.9556924,-80.0053175,POINT(-80.0053175 35.9556924)
,,,,,observing.,,,
9/26/16 17:40,USA,Walkertown,NC,Rectangle,Sitting at a traffic light on the way home from work. Sky was dark due to ,35.6534497,-82.3390097,POINT(-82.3390097 35.6534497)
,,,,,pending storm. There is an area of light break in the sky a,,,
9/26/16 16:00,USA,Apple Valley,UT,Changing,Glowing orb hovers in southern Utah for over four hours.,37.0897057,-113.1243875,POINT(-113.1243875 37.0897057)
9/26/16 15:30,USA,Oakdale,CA,Other,Small slow moving object that glowed bright white,37.7665947,-120.8471544,POINT(-120.8471544 37.7665947)
9/26/16 14:00,USA,Rothschild,WI,Triangle,Triangle shaped 3 bright lights moving slowly,44.8871907,-89.6201217,POINT(-89.6201217 44.8871907)
9/26/16 12:30,USA,Antioch,CA,Teardrop,FLOATING WHITE OBJECTS ABOVE MT.DIABLO FOOTHILLS IN CA,38.0049214,-121.8057889,POINT(-121.8057889 38.0049214)
9/26/16 11:35,USA,Sacramento,CA,Oval,"Star-like object trailing plane, followed by silver-whitish gray pill object",38.5815719,-121.4943995,POINT(-121.4943995 38.5815719)
9/26/16 7:30,USA,Hollywood,FL,Circle,"Bright white circle, high speed travel and large rapid U-turns. ((anonymous ",26.0112014,-80.14949,POINT(-80.14949 26.0112014)
,,,,,report)),,,
9/26/16 5:20,USA,Coachella,CA,Circle,I was standing in a maintenance yard using nvg goggles looking up to the ,33.6795519,-116.1763379,POINT(-116.1763379 33.6795519)
,,,,,sky noticed 8 objects overhead. ((anonymous report)),,,
9/26/16 5:00,USA,Long Beach,CA,Light,Impossably fast moving light following plane and evading persuit. ,33.78538945,-118.1580492,POINT(-118.158049215311 33.78538945)
,,,,,((anonymous report)),,,
9/26/16 4:08,USA,Aurora,CO,Cigar,"Similar to shooting star, bright green and left trails like smoke clouds. ",43.6963371,-98.572246,POINT(-98.572246 43.6963371)
,,,,,No noise cloud level so kinda close.,,,
6/12/16 19:15,USA,Austin,NV,Fireball,I work for a major national ((deleted--corp.) and my family (wife/age ,39.4932592,-117.0695385,POINT(-117.0695385 39.4932592)
,,,,,"deleted) daughter) and I were driving N of Austin, NV.",,,
9/26/16 3:00,USA,Port Orchard,WA,Triangle,Just arrived for a delivery to a store and waiting for the door to open ,47.5315625,-122.6384055,POINT(-122.6384055 47.5315625)
,,,,,looking up and saw a triangle shape with 3 red lights then abou,,,
9/25/16 0:00,USA,Bellingham,WA,Circle,Bright silent orb movng a extreme speed over Bellingham.,48.754402,-122.4788601,POINT(-122.4788601 48.754402)
9/25/16 23:46,USA,El Mirage,AZ,Circle,Around 11:46 PM when I was staring up in the sky and noticed 2 circle li ,33.6130338,-112.3244865,POINT(-112.3244865 33.6130338)
,,,,,((anonymous report)),,,
9/25/16 23:00,USA,Naugatuck,CT,Light,I was sitting on the deck with family and unidentified avian crafts became ,41.4860186,-73.0509431,POINT(-73.0509431 41.4860186)
,,,,,visible. Hovering over cities.,,,
9/25/16 22:15,USA,San Jose,CA,Rectangle,I was on my balcony around 22:15 this evening when looked up at the sky and ,37.3361905,-121.8905832,POINT(-121.8905832 37.3361905)
,,,,,saw this rectangular shaped object with bright red lights a,,,
9/25/16 21:30,USA,Reston,VA,Circle,"Reston, VA, at ~21:30z: Extremely fast multi-colored object moving at the ",38.9584018,-77.3579742,POINT(-77.3579742 38.9584018)
,,,,,trajectory of a passenger plane for 2 sec and disappearing.,,,
9/25/16 21:30,USA,Sacramento,CA,Light,I was sitting out side and looked to the west and saw a massive light in ,38.5815719,-121.4943995,POINT(-121.4943995 38.5815719)
,,,,,"the sky it was red,blue and white it stayed in one place for 2",,,
9/25/16 20:30,USA,Wetumpka,AL,Light,Flickering light high in the sky with smooth drone-like movements.,32.5437448,-86.2119126,POINT(-86.2119126 32.5437448)
9/25/16 20:19,USA,Northglenn,CO,Triangle,Triangle shaped object with white lights on the three tips seen moving ,39.885541,-104.9872025,POINT(-104.9872025 39.885541)
,,,,,south to north,,,
9/25/16 20:15,USA,Eugene,OR,Triangle,Saw triangle shaped craft with some kind of cloaking.,44.10118085,-123.1523837,POINT(-123.152383713818 44.10118085)
6/12/16 19:00,USA,Austin,NV,Other,Dark yellow pulsating lights in the western sky and bright yellow light ,39.4932592,-117.0695385,POINT(-117.0695385 39.4932592)
,,,,,show to the north.,,,
9/25/16 20:00,USA,Bellingham,WA,Circle,"I saw another post for this same event - I too, saw a bright white flash ",48.754402,-122.4788601,POINT(-122.4788601 48.754402)
,,,,,like a ball come down from the sky. It looked as if it went in,,,
9/25/16 19:47,USA,Roseville,CA,Formation,It seemed to be at least 50 objects that were vertical and then the went ,38.72338,-121.1858782,POINT(-121.185878161131 38.72338)
,,,,,horizontal with one object brighter than all the others.,,,
9/25/16 19:45,USA,Rocklin,CA,Unknown,Large formation of lights in the sky at night at a pretty high altitude ,38.7907339,-121.2357827,POINT(-121.2357827 38.7907339)
,,,,,without any noise.,,,
9/25/16 19:30,USA,Rocklin,CA,Unknown,Strange lights formation in a streak in the sky above Rocklin Ca. To many ,38.7907339,-121.2357827,POINT(-121.2357827 38.7907339)
,,,,,to be drones.,,,
9/25/16 17:15,USA,Cranford,NJ,Sphere,Orange orb with white satellites appear and disappear in a clear daytime ,40.6584358,-74.2995922,POINT(-74.2995922 40.6584358)
,,,,,sky. ((anonymous report)),,,
9/25/16 15:49,USA,Wilmington,DE,Circle,Four objects noticed way up in the sky. ((anonymous report)),39.745947,-75.5465889,POINT(-75.5465889 39.745947)
9/25/16 14:00,USA,East Brunswick,NJ,Oval,"Shiny Oval Shape UFO sighting in East Brunswick, NJ on Sept 25, 2016.",40.4278841,-74.4159839,POINT(-74.4159839 40.4278841)
9/25/16 12:30,USA,Pittsburgh,PA,Chevron,Saw a triangle/chevron shape black and red craft flying over the clouds at ,40.4416941,-79.990086,POINT(-79.990086 40.4416941)
,,,,,a high rate of speed to the south,,,
9/25/16 12:00,USA,Brandywine,MD,Triangle,Strange rotating debris and triangular vessell above Brandywine,38.696783,-76.8477489,POINT(-76.8477489 38.696783)
9/25/16 1:00,USA,Kansas City,MO,Unknown,"Strange sounds were heard from outside. A sound ringing pitch,and a ",39.0844687,-94.5630297,POINT(-94.5630297 39.0844687)
,,,,,crunching aluminum sound. Then a humming rang inside my head and I,,,
12/19/16 3:30,USA,Salt Lake City,UT,Triangle,Triangular shaped object changing speed. ((anonymous report)),40.7670126,-111.8904307,POINT(-111.8904307 40.7670126)
6/12/16 18:00,USA,Nairn,LA,Formation,Orange orbs.,29.4279955,-89.6108946,POINT(-89.6108946 29.4279955)
9/25/16 0:09,USA,Dayton,TX,Triangle,((HOAX??)) Boomerang style craft. ((anonymous report)),30.0466051,-94.8852025,POINT(-94.8852025 30.0466051)
9/24/16 23:50,USA,Montville,OH,Flash,"Bright, white, even flash illuminated entire night sky for an instant. ",41.6072757,-81.0503741,POINT(-81.0503741 41.6072757)
,,,,,((anonymous report)),,,
9/24/16 23:30,USA,Stering Heights,MI,Formation,Tight knit formation of 5 yellow lights that disappeared.,35.1878231,-80.8082558,POINT(-80.8082558 35.1878231)
9/24/16 23:20,USA,White Plains,NY,Circle,As i was driving I saw two circular orange flying lights.They were side by ,41.0339862,-73.7629096,POINT(-73.7629096 41.0339862)
,,,,,side with a distance between them.I didn't hear any sound. I,,,
9/24/16 23:00,USA,Fenton,MI,Triangle,Two triangle shapes making no sound flew overhead with just the light from ,38.5132838,-90.4401793,POINT(-90.4401793 38.5132838)
,,,,,the moon reflecting off them. They traveled at a rate of spe,,,
9/24/16 22:45,USA,Cincinnati,OH,Oval,I witnessed a small orange light coming towards my location at the UDF on ,39.1014537,-84.5124601,POINT(-84.5124601 39.1014537)
,,,,,River Road and Anderson Ferry. It was coming north from Kentu,,,
9/24/16 22:15,USA,Long Beach,CA,Formation,"Three very bright lights in triangle formation moving slowly across sky, ",33.78538945,-118.1580492,POINT(-118.158049215311 33.78538945)
,,,,,slightly rotating in formation,,,
9/24/16 22:00,USA,Akron,OH,Formation,I saw 4 amber glowing disk shaped objects very low to the ground over ,41.0830643,-81.5184853,POINT(-81.5184853 41.0830643)
,,,,,Merriman Valley. I was driving so it was difficult to watch. Very,,,
9/24/16 22:00,USA,Rutland,MA,Circle,4 yellow lights in the sky. Perfectly spaced apart flying horizontal. No ,42.3695356,-71.9481301,POINT(-71.9481301 42.3695356)
,,,,,sound. Then 2 more followed but one at a time.,,,
9/24/16 21:30,USA,Niagara Falls,NY,Fireball,Green light followed by what appeared to be hovering object with blinking ,43.1131874,-79.0314255,POINT(-79.0314255 43.1131874)
,,,,,"lights above Niagara Falls, NY. ((anonymous report))",,,
6/12/16 17:30,USA,Holland,PA,Sphere,It was a bright red sphere that lit up the woods as it passed slowly ,40.1728871,-74.9926687,POINT(-74.9926687 40.1728871)
,,,,,"overhead, traveling east until it went up over the ridge by Nesham",,,
9/24/16 21:30,USA,Hamilton,NJ,Formation,Three bright red lights in SE 9.24.2016.,40.2070573,-74.0812505,POINT(-74.0812505 40.2070573)
9/24/16 21:28,USA,Denver,CO,Triangle,At 928 pm friend and I talking about me seeing a red triangle shaped ufo ,39.7348381,-104.965327,POINT(-104.965327 39.7348381)
,,,,,just a week ago then see 6-8red orbs little bigger than Mars w,,,
9/24/16 21:17,USA,Cumberland Center,ME,Other,I saw a bright orange light in the sky that hovered over my neighbors house ,43.7964679,-70.2589387,POINT(-70.2589387 43.7964679)
,,,,,and then moved slowly as far as I could see until out of si,,,
9/24/16 21:00,USA,Macungie,PA,Light,"Macungie, PA-8 staggered red lights in sky traveling slowly W to S over ",40.5159304,-75.5551857,POINT(-75.5551857 40.5159304)
,,,,,South Mountain at 9 PM 9/24/16.,,,
9/24/16 21:00,USA,Lancaster,PA,Circle,My uncle went outside to smoke a cigarette and he happened to spot the ,40.03813,-76.3056685,POINT(-76.3056685 40.03813)
,,,,,formation of the orange lights. They flickered as they gliding t,,,
9/24/16 20:45,USA,New Holland,OH,Unknown,Large rectangular formation of lights visible over farm house that ,39.5539511,-83.2568581,POINT(-83.2568581 39.5539511)
,,,,,"disappeared and then reappeared, moving slowly and silently.",,,
9/24/16 20:45,USA,Garden City,SC,Other,"Sighting of a 'V' shaped craft approximately 200 feet across, traveling ",33.5863905,-79.0120627,POINT(-79.0120627 33.5863905)
,,,,,"very fast at about 2,000, with no lights and no sound.",,,
9/24/16 20:45,USA,Tigard,OR,Light,"Two very bright, star-like objects side by side at an angle.",45.4307473,-122.7719338,POINT(-122.7719338 45.4307473)
9/24/16 20:15,USA,Buffalo,NY,Light,"My wife and I saw a reddish-yellow, pulsing light in the night sky.",42.8867166,-78.8783921,POINT(-78.8783921 42.8867166)
9/24/16 20:05,USA,Fairmont,WV,Circle,"Bright diagonal lights, slowly dim away. ((anonymous report))",39.4850848,-80.142578,POINT(-80.142578 39.4850848)
6/12/16 17:00,USA,Manhattan,NY,Unknown,I believe that an unknown creature teleported into my backyard,40.7902778,-73.9597221,POINT(-73.9597221 40.7902778)
9/24/16 19:39,USA,Redding,CA,Rectangle,Box and kite like object in fixed position. ((anonymous report)),40.5863563,-122.3916753,POINT(-122.3916753 40.5863563)
9/24/16 19:30,USA,Philadelphia,PA,Light,Outside about 7;30 pm on sat 9/24/16 cleaning and doing maintenance work at ,39.9523993,-75.1635898,POINT(-75.1635898 39.9523993)
,,,,,"my auto repair shop in phila when I look up, its now dusk,",,,
9/24/16 19:30,USA,Oakland,CA,Triangle,Flashing lights in triangle form above I-80 in Oakland.,37.8044557,-122.2713562,POINT(-122.2713562 37.8044557)
9/24/16 18:15,USA,South Burlington,VT,Oval,UFO Hovers and departs over Burlington International Airport (BTV).,44.4669941,-73.1709603,POINT(-73.1709603 44.4669941)
9/24/16 17:55,CANADA,Toronto,ON,Oval,"Blurry, white oval craft and trailing red lights over Rogers (SkyDome) ",43.6529206,-79.3849007,POINT(-79.3849007 43.6529206)
,,,,,"Centre, Toronto",,,
9/24/16 8:00,USA,Fountain Valley,CA,Triangle,Two objects in the sky over the fountain valley high school.,33.7038145,-117.9627348,POINT(-117.9627348 33.7038145)
9/24/16 7:30,USA,Lacey,WA,Unknown,My wife and I saw something very strange in the sky...a craft that had 2 ,47.0263876,-122.8072256,POINT(-122.8072256 47.0263876)
,,,,,rows of parallel lights. ((anonymous report)),,,
9/24/16 7:30,USA,Silverlake,CA,Cigar,"Hovering rod and 3 moving orbs over Silverlake, Los Angeles",35.388951,-119.0963359,POINT(-119.0963359 35.388951)
9/24/16 4:00,USA,Alice,TX,Light,A bright light in the sky!,27.7522487,-98.0697248,POINT(-98.0697248 27.7522487)
9/24/16 3:13,USA,Downey,CA,Egg,White egg shape object high speed at (jet speed or faster) high altitude ,33.937672,-118.1654425,POINT(-118.1654425 33.937672)
,,,,,with no sound or lights ((anonymous report)),,,
6/12/16 13:15,USA,Lake Jackson,TX,Unknown,House Shaking Aerial Down Burst.,29.0338575,-95.4343858,POINT(-95.4343858 29.0338575)
9/24/16 3:00,USA,Siracusa,NY,Light,"Driving on 690, two flashing red/white/blue lights north towards fulton and ",40.849158,-73.2585629,POINT(-73.2585629 40.849158)
,,,,,south towards syracuse then vanished.,,,
9/24/16 1:00,USA,Melbourne Beach,FL,Other,"Early morning, bright red, morphing object hovers above the ocean, growing ",28.0683496,-80.5603302,POINT(-80.5603302 28.0683496)
,,,,,in strength and disappears,,,
9/24/16 0:00,USA,Cleveland,OH,Fireball,Orange flying ball with shapes of light spinning around it.,41.5051613,-81.6934445,POINT(-81.6934445 41.5051613)
9/23/16 22:00,USA,Sarasota,FL,Changing,"At first we saw a line of flashing lights in the sky, then they just ",27.3364347,-82.5306526,POINT(-82.5306526 27.3364347)
,,,,,started to move faster and changed into different shapes. It was h,,,
9/23/16 22:00,USA,Lilburn,GA,Fireball,"Similar to 3/14/15 at 20:00 in Lilburn, GA, I also saw about 15 very bright ",33.8901036,-84.1429718,POINT(-84.1429718 33.8901036)
,,,,,orange lights shaped like fireballs. ((anonymous report)),,,
9/23/16 22:00,USA,Indianapolis,IN,Light,Silent orange orbs fly very low and disappear.,39.7683331,-86.1583501,POINT(-86.1583501 39.7683331)
9/23/16 21:40,USA,Springfield,VA,Circle,Big orange circle vanishes.,38.7890522,-77.1870367,POINT(-77.1870367 38.7890522)
9/23/16 20:45,USA,Bradenton,FL,Triangle,It was travailing due south at Aprox 2500 ft I was located 5 mi. in from ,27.4724175,-82.563375,POINT(-82.563375 27.4724175)
,,,,,the Gulf of Mexico and I was looking west.,,,
9/23/16 20:32,USA,Virginia Beach,VA,Cigar,VA Beach shore drive. Cigar-shape 8' off ground yellow lights. ((anonymous ,36.8529841,-75.9774182,POINT(-75.9774182 36.8529841)
,,,,,report)),,,
9/23/16 20:19,USA,Lansing,MI,Light,Went out from indoor soccer arena. All my teammates were already gone. I ,42.7337712,-84.5553804,POINT(-84.5553804 42.7337712)
,,,,,headed out to the parking lot and saw exactly 30 bright yellow,,,
6/12/16 7:15,USA,Union,IL,Chevron,There is never a static light in this area of the sky.,37.4616454,-89.2504792,POINT(-89.2504792 37.4616454)
9/23/16 19:30,USA,Longmont,CO,Light,I was at work when I stepped outside to do a security check of the building ,40.1672117,-105.1019286,POINT(-105.1019286 40.1672117)
,,,,,I'm responsible for. A light was seen to the South and was,,,
9/23/16 17:30,USA,Las Vegas,NV,Oval,Strange Lights over Frenchman Mountain Range in Las Vegas.,36.1662859,-115.1492249,POINT(-115.1492249 36.1662859)
9/22/16 22:00,USA,Santa Monica,CA,Formation,Multi-colored flying objects that were not noisy.,34.019657,-118.4875489,POINT(-118.4875489 34.019657)
9/22/16 21:30,USA,Austell,GA,Light,One bright green light (similar to traffic light green) moving straight ,33.8126059,-84.6343782,POINT(-84.6343782 33.8126059)
,,,,,"downwards at a fast, but controlled rate of speed. No contrails",,,
9/22/16 21:30,USA,Glenside,PA,Triangle,I just know something hovered by tonight over the top of our car that I ,40.103196,-75.15155335,POINT(-75.1515533498208 40.103196)
,,,,,cannot fully explain and unidentified.,,,
9/22/16 21:10,USA,Morristown,TN,Other,Hovering ball of light shaped like a trapezoid.,36.2139814,-83.2948922,POINT(-83.2948922 36.2139814)
9/22/16 20:45,USA,Portland,OR,Sphere,Slow moving orb over Portland oregon,45.5202471,-122.6741948,POINT(-122.6741948 45.5202471)
9/22/16 20:30,USA,Temecula,CA,Triangle,Triangle shaped UFO in the sky moving around! ((anonymous report)),33.4946353,-117.147366,POINT(-117.147366 33.4946353)
9/22/16 19:40,USA,Boston,MA,Light,Multiple Amber-Red lights over South Boston heading North over Boston-Logan ,42.3604823,-71.0595677,POINT(-71.0595677 42.3604823)
,,,,,International Airport.,,,
9/22/16 19:00,USA,Woonsocket,RI,Circle,Red flashing object.,42.0028761,-71.5147838,POINT(-71.5147838 42.0028761)
6/12/16 5:00,USA,Osterville,MA,Light,Bright light traveling horizontally low across the sky south to north,41.6293398,-70.3866805,POINT(-70.3866805 41.6293398)
9/22/16 12:15,USA,Cincinnati,OH,Fireball,Large round light falls from sky then is later seen standing still.,39.1014537,-84.5124601,POINT(-84.5124601 39.1014537)
9/22/16 8:45,CANADA,Niagara Falls,ON,Formation,Lights over Niagara River.,43.1089442,-79.0636192,POINT(-79.0636192 43.1089442)
9/22/16 5:50,USA,Athens,GA,Light,Fast moving green light.,33.94385375,-83.39728979,POINT(-83.3972897876213 33.94385375)
9/22/16 4:47,USA,Livingston,NJ,Unknown,"Star gazing while waiting on my dog. Size of a star, moving slower than a ",40.7959335,-74.3148712,POINT(-74.3148712 40.7959335)
,,,,,"plane, no noise, could see blatant small reflection from the",,,
9/22/16 4:15,USA,Petersburg,VA,Unknown,There has been an object hovering outside of our home for almost an hour ,37.1924594,-77.3677407,POINT(-77.3677407 37.1924594)
,,,,,now. It moves zigzag and in a circle while changing pattern an,,,
9/22/16 2:02,USA,Columbia,SC,Unknown,Unusual Aircraft flies low over Columbia SC,34.0007493,-81.0343312,POINT(-81.0343312 34.0007493)
9/21/16 23:37,USA,Oak Ridge,TN,Circle,"Strange lights in Oak Ridge, Tennessee. ((NUFORC Note: Sighting of the ",36.0103562,-84.2696448,POINT(-84.2696448 36.0103562)
,,,,,"star, Sirius. PD))",,,
9/21/16 22:14,USA,Mebane,NC,Unknown,"Low, loud rumble.",36.095972,-79.2669619,POINT(-79.2669619 36.095972)
9/21/16 22:00,USA,Quincy,MA,Oval,Green oval shape shoot across the sky and then disappeared.,42.2528772,-71.0022704,POINT(-71.0022704 42.2528772)
9/21/16 21:50,USA,Wilmington,MA,Circle,glowing green orb of light that shot across the sky and dissapeared,42.5464828,-71.1736668,POINT(-71.1736668 42.5464828)
6/12/16 1:40,USA,Sunrise,FL,Circle,Multi Color changing UFO.,26.1482449,-80.32888584,POINT(-80.3288858410087 26.1482449)
9/21/16 21:45,USA,Lowell,MA,Fireball,I saw large green shooting star/fireball. It had a long green tail. It was ,42.6334247,-71.3161717,POINT(-71.3161717 42.6334247)
,,,,,"going really fast, from east to west, from high to low. I",,,
9/21/16 21:42,USA,Nashua,NH,Fireball,Emerald green fireball shooting across sky,42.7653662,-71.4675659,POINT(-71.4675659 42.7653662)
9/21/16 21:30,USA,North Brookfield,MA,Oval,Green oval flying through the sky,42.2667587,-72.0828544,POINT(-72.0828544 42.2667587)
9/21/16 20:30,USA,Cicero,NY,Light,"SIGHTING #3: Bright white pulse of light, quickly diminishing to star ",43.1756235,-76.1193677,POINT(-76.1193677 43.1756235)
,,,,,"intensity, moving.",,,
9/21/16 20:15,USA,Cicero,NY,Cross,SIGHTING #2: Bluish cross-shaped UFO followed by large conventional ,43.1756235,-76.1193677,POINT(-76.1193677 43.1756235)
,,,,,aircraft.,,,
9/21/16 20:07,USA,Cicero,NY,Formation,"SIGHTING #1: Three reddish lights in formation, two bobbing around in front ",43.1756235,-76.1193677,POINT(-76.1193677 43.1756235)
,,,,,of the the third.,,,
9/21/16 20:05,USA,North Bend,WA,Flash,"I was traveling home, east bound i90 to north bend, WA. I began to see ",47.4938343,-121.786249,POINT(-121.786249 47.4938343)
,,,,,extremely bright flashes lighting up the sky every 3-5 minutes o,,,
9/21/16 19:50,USA,Austin,TX,Unknown,Security camera facing south recorded a brief very bright pinkish flash in ,30.2711286,-97.7436994,POINT(-97.7436994 30.2711286)
,,,,,the entire sky.,,,
9/21/16 19:40,USA,Nashville,TN,Diamond,I saw a star like object appear as bright as Venus for about 4-5 seconds ,36.1622296,-86.774353,POINT(-86.774353 36.1622296)
,,,,,and gradually disappear.,,,
9/21/16 18:00,USA,Beaverton,OR,Circle,Bright blue ball of light! ((anonymous report)),45.4871723,-122.8037803,POINT(-122.8037803 45.4871723)
5/12/16 22:40,CANADA,Regina,SK,Light,2 blue lights balls moving close.,50.4480951,-104.615818,POINT(-104.615818 50.4480951)
9/21/16 17:00,USA,Pellville,KY,Diamond,2 diamond shaped orange green an yellow lights one SW from my location the ,37.7522749,-86.8136004,POINT(-86.8136004 37.7522749)
,,,,,other in W. ((NUFORC Note: Stars? PD)),,,
9/21/16 8:20,USA,Buford,GA,Light,Large bright light near Arcturus in the sky visibly as bright as sun. ,34.1206564,-84.0043512,POINT(-84.0043512 34.1206564)
,,,,,Followed by a massive ball of light. ((anonymous report)),,,
9/21/16 5:16,USA,Newport Beach,CA,Fireball,Three fireball objects seen by witnesses fading in and out of view over the ,33.6170092,-117.92944,POINT(-117.92944 33.6170092)
,,,,,ocean.,,,
9/21/16 5:16,USA,Newport Beach,CA,Fireball,Three fireball objects seen by witnesses fading in and out of view over the ,33.6170092,-117.92944,POINT(-117.92944 33.6170092)
,,,,,"ocean. Location was off the coast from Newport Beach, CA.",,,
9/21/16 4:23,USA,Shelbyville,IN,Triangle,Triangular blinking lights in the sky.,39.5214373,-85.7769237,POINT(-85.7769237 39.5214373)
9/21/16 2:35,USA,Tea,SD,Fireball,"Fireball observed north of Tea, SD.",43.44661,-96.8360339,POINT(-96.8360339 43.44661)
9/20/16 22:13,USA,Springtown,TX,Oval,Strange craft and flight pattern seen in Springtown Texas night sky.,31.802096,-98.1897588,POINT(-98.1897588 31.802096)
9/20/16 22:00,USA,Oak Lawn,IL,Light,UFO Flying thr whole street of Cicero above traffic as high as planes fly.,41.7108662,-87.758108,POINT(-87.758108 41.7108662)
9/20/16 21:04,USA,Louisville,KY,Sphere,Approximately 21:04 on Tuesday 9/20/2016 two objects were observed ,38.2542376,-85.7594069,POINT(-85.7594069 38.2542376)
,,,,,approximately 224° southwest at approximately +38° the 2 silver whit,,,
9/20/16 21:00,USA,Salt Lake City,UT,Triangle,"Kite formation, including tail, traveled S to N along Wasatch over Red Butte",40.7670126,-111.8904307,POINT(-111.8904307 40.7670126)
5/12/16 20:05,USA,Niantic,CT,Triangle,"Low flying UFO, ""S"" shape flight path, then flew into the ocean.",32.7809195,-117.2524695,POINT(-117.2524695 32.7809195)
9/20/16 21:00,USA,Claremont,CA,Unknown,"White, red, and emerald green blinking lights. A motor can be heard and it ",34.0966764,-117.7197784,POINT(-117.7197784 34.0966764)
,,,,,"hovered for over 30 minutes then headed south, east towards",,,
9/20/16 21:00,USA,Elmore County,ID,Light,My son and I were elk hunting in Area 39 when we were headed back to camp ,43.3073766,-115.5411026,POINT(-115.5411026 43.3073766)
,,,,,in my station wagon after hunting near the lake till dark. We,,,
9/20/16 21:00,USA,Brooklyn,NY,Light,Red strange bright light in the sky traveling slow and stopping ((anonymous ,40.64530975,-73.95502293,POINT(-73.9550229275334 40.64530975)
,,,,,report)),,,
9/20/16 20:45,USA,Salt Lake City,UT,Formation,Constant speed lights moving NW on 9/20/16,40.7670126,-111.8904307,POINT(-111.8904307 40.7670126)
9/20/16 20:35,USA,Freeland,PA,Light,Another Freeland Light Sighting. ((NUFORC Note: We suspect the objects may ,41.0167508,-75.897143,POINT(-75.897143 41.0167508)
,,,,,have been stars. PD)),,,
9/20/16 20:15,USA,Harrisburg,PA,Other,Bright stadium like lights across a very large long object moving across ,40.2663107,-76.8861121,POINT(-76.8861121 40.2663107)
,,,,,sky then vanished.,,,
9/20/16 20:00,USA,Assumption,MI,Light,"Two objects standing still then circling, one disappeared then the forest ",29.9185432,-91.0533995,POINT(-91.0533995 29.9185432)
,,,,,lit up far in the distance no blinking ligh resembled firebal,,,
9/20/16 20:00,USA,Amherst,NY,Sphere,"Bright Green sphere moving slowly west Amherst (Bailey ave.), Tonawanda.",42.9783924,-78.7997615,POINT(-78.7997615 42.9783924)
9/20/16 19:45,USA,Charleroi,PA,Cylinder,4 bright goldish lights stationary-moving randomly then disappearing,40.1378499,-79.8981034,POINT(-79.8981034 40.1378499)
9/20/16 19:09,CANADA,Burnaby,BC,Circle,"I was shooting the cloud of sunset by using my iPhone and iPad , finally I ",49.2445,-122.9727169,POINT(-122.9727169 49.2445)
,,,,,"found it in my images. And it is pretty clear, bright,, yell",,,
5/12/16 18:39,USA,Ivins,UT,Circle,Vertical red dots of lights on horizon that looked like radio towers--3 or ,37.1685907,-113.6794056,POINT(-113.6794056 37.1685907)
,,,,,4 of them--had been erected overnight.,,,
9/20/16 18:00,USA,St. Augustine,FL,Chevron,Black Craft Followed by Two Jets,29.8946952,-81.3145394,POINT(-81.3145394 29.8946952)
9/20/16 16:34,CANADA,Oakville,ON,Sphere,"Daytime UFO sighting near Oakville, ON, Canada.",43.447436,-79.6666719,POINT(-79.6666719 43.447436)
9/20/16 13:00,USA,Conway,AR,Sphere,"White, unmoving object high in sky.",35.0886963,-92.442101,POINT(-92.442101 35.0886963)
9/20/16 10:50,USA,Laurel,MD,Chevron,I was laying in bed. I saw some weird craft hovering very low above ground. ,39.0992752,-76.848306,POINT(-76.848306 39.0992752)
,,,,,It was chevron/ square shaped. Had 4 lights. Moved very fas,,,
9/20/16 10:00,USA,Thomson,GA,Disk,There is a round object. Green and red in color or more colors in the night ,33.4707348,-82.5045955,POINT(-82.5045955 33.4707348)
,,,,,sky. ((NUFORC Note: Star?? PD)),,,
9/20/16 6:10,USA,Columbus,OH,Chevron,I live in the northeast part of Columbus. I saw a bright light in the ,39.9622601,-83.0007064,POINT(-83.0007064 39.9622601)
,,,,,"distance and it slowly came closer, I think it was moving about 2",,,
9/20/16 5:15,USA,Bradenton,FL,Other,"One multicolored floating sparkplug gave birth to 6 soft white, un flapping ",27.4724175,-82.563375,POINT(-82.563375 27.4724175)
,,,,,birds in a half moon line sped across the early morning sky,,,
9/20/16 5:00,USA,Siracusa,NY,Light,"Twinkling light with ""shooting star"" through its center. (could be ",40.849158,-73.2585629,POINT(-73.2585629 40.849158)
,,,,,natural/explained) ((anonymous report)),,,
9/20/16 4:00,USA,Brookfield,IL,Disk,"I noticed this bright star to the southeast of my house. It was a bright, ",41.8228378,-87.8480849,POINT(-87.8480849 41.8228378)
,,,,,rotating. ((NUFORC Note: We suspect a star. PD)),,,
9/20/16 1:00,USA,Gila,NM,Oval,"I watched a well defined oval craft, non-reflective gray metallic surface, ",32.9659028,-108.5767196,POINT(-108.5767196 32.9659028)
,,,,,no fixed or blinking lights just blue halo fly low over Gila,,,
12/19/16 1:27,USA,Richardson,TX,Triangle,"3 triangular shaped craft - flying in V-formation from West to East, just ",32.9481789,-96.7297205,POINT(-96.7297205 32.9481789)
,,,,,"North of Dallas Texas, and the night sky was very clear",,,
5/12/16 18:15,USA,Haskell,NJ,Triangle,Triangle over Ringwood and Haskell.,41.0284304,-74.2959822,POINT(-74.2959822 41.0284304)
9/19/16 22:00,USA,Baraboo,WI,Flash,Green light suddenly appeared low on the horizon. Moved like a shooting ,43.4704014,-89.7437843,POINT(-89.7437843 43.4704014)
,,,,,"star. Because of the green color, I initially thought it was an",,,
9/19/16 22:00,USA,Saucier,MS,Light,Several white lights along with one orange light 5 nights in a row. Made ,30.625503,-89.14462969,POINT(-89.1446296936706 30.625503)
,,,,,impossible movements with quick moving and sudden stops.,,,
9/19/16 22:00,USA,Oswego,IL,Light,Very large ball/triangle of light that was blue/green appeared in night sky ,41.6828074,-88.3514595,POINT(-88.3514595 41.6828074)
,,,,,and flew for a quick 3-6 seconds. ((anonymous report)),,,
9/19/16 22:00,USA,Aumsville,OR,Cross,Light Object.,44.8409548,-122.8709242,POINT(-122.8709242 44.8409548)
9/19/16 21:30,USA,Loveland,CO,Chevron,Boomerang formation giving off a trail of light like a comet. Two aircraft ,40.385549,-105.0443612,POINT(-105.04436122095 40.385549)
,,,,,were in the air at the same time.,,,
9/19/16 21:15,USA,Charlotte,NC,Unknown,Blue light object traveling like a flash light disappeared in to clouds.,35.2270869,-80.8431267,POINT(-80.8431267 35.2270869)
9/19/16 21:00,USA,Crandon,WI,Other,"Fast, erratic blinking lights, stalled in the sky then continued and ",45.571907,-88.9028919,POINT(-88.9028919 45.571907)
,,,,,returned to same spot.,,,
9/19/16 20:47,USA,Jasper,GA,Circle,"Redish orange in illumination, appeared to hover, no sound, appears to move ",33.3254635,-83.6868558,POINT(-83.6868558 33.3254635)
,,,,,"slightly, warmer than usual breez",,,
9/19/16 20:05,USA,Pittsfield,MA,Fireball,"Out for a walk to the store, walking toward the northwest on the south side ",42.4500967,-73.2453784,POINT(-73.2453784 42.4500967)
,,,,,"of town, I first noticed it over the treeline as very red.",,,
9/19/16 18:22,USA,Cloverdale,NM,Disk,Two saucer shaped clear images at 31 26 14N 108 58 32 W,31.4170488,-108.9297734,POINT(-108.9297734 31.4170488)
5/12/16 18:00,USA,Westmoreland,NH,Disk,"As I was hiking through a field from a day of hunting, I stop to rested and ",42.9620253,-72.4423101,POINT(-72.4423101 42.9620253)
,,,,,gazed upwards into the sky at the crescent moon and planets,,,
9/19/16 17:50,USA,Powell,TN,Triangle,"Very large ,silent,triangle shaped craft with 1 large bright red light on ",36.0317472,-84.0279676,POINT(-84.0279676 36.0317472)
,,,,,right wing and smaller pinkish white light on left wing.white,,,
9/19/16 8:30,USA,Perris,CA,Disk,"Bright Red UFO Spotted Over Perris, CA 9/19/16",33.7825194,-117.2286477,POINT(-117.2286477 33.7825194)
9/19/16 3:32,USA,San Diego,CA,Triangle,"San Diego, CA 9/19/16 3:32 am I heard noise like a thunder clap and what ",32.7174209,-117.1627713,POINT(-117.1627713 32.7174209)
,,,,,sounded to be a low flying roar from an aircraft. I walked ou,,,
9/18/16 23:00,USA,Las Vegas,NV,Oval,Object moved south west from miserable Airport passing over mountain near ,36.1662859,-115.1492249,POINT(-115.1492249 36.1662859)
,,,,,German high school passing three aircraft moving East to west,,,
9/18/16 22:00,USA,Danforth,IL,Unknown,Craft with multiple bright lights on the bottom hovered and flew in a ,40.820312,-87.9778179,POINT(-87.9778179 40.820312)
,,,,,curvilinear path over the cornfields. After several minutes movi,,,
9/18/16 21:00,CANADA,Ingersoll,ON,Formation,Multiple Anomolies In An Ontario Town,43.037725,-80.8821099,POINT(-80.8821099 43.037725)
9/18/16 21:00,USA,Grand Rapids,MI,Light,"white light streaking across sky west to south/east, No sound, Fast, ",42.9632405,-85.6678638,POINT(-85.6678638 42.9632405)
,,,,,viewable for almost a minute,,,
9/18/16 21:00,USA,Charleston,MO,Unknown,"3 yellow, orange stationary speres at about six thousand feet moving west ",36.9208854,-89.3506309,POINT(-89.3506309 36.9208854)
,,,,,over Charleston.,,,
9/18/16 20:52,USA,Fort Wayne,IN,Other,"Dozens of lights move slowly in unison, then ascend",41.0799898,-85.1386014,POINT(-85.1386014 41.0799898)
9/18/16 20:48,USA,Morongo valley,CA,Unknown,Probably meteor fire behind.,34.0537585,-116.596724,POINT(-116.596723958419 34.0537585)
5/12/16 17:40,CANADA,Keswick,ON,Unknown,"Silent white light/sphere in sky, light fades,it disappears, comes back ",44.2278666,-79.46145,POINT(-79.46145 44.2278666)
,,,,,then disappears again,,,
9/18/16 20:45,USA,Oroville,CA,Light,Observed bright orange light moving unlike a jet or prop plane that seemed ,39.5137752,-121.5563589,POINT(-121.5563589 39.5137752)
,,,,,"to stop in midair, and jerk or rock slightly.",,,
9/18/16 20:10,USA,Manitou Springs,CO,Oval,"Fireball over Colorado Springs, west to east, slows down, turns, and then ",38.8585777,-104.917873,POINT(-104.917873 38.8585777)
,,,,,moves north. ((anonymous report)),,,
9/18/16 19:21,USA,Yukon,OK,Light,"Bright, metallic sphere surveilling Oklahoma City",35.5067259,-97.7625385,POINT(-97.7625385 35.5067259)
9/18/16 19:00,USA,Aurora,CO,Other,Bright white shape seen close to a park.,43.6963371,-98.572246,POINT(-98.572246 43.6963371)
9/18/16 15:30,USA,Bridgewater,NJ,Rectangle,While driving on Route 22 in the U turn to drive towards Flemington I saw a ,40.5599163,-74.5516572,POINT(-74.5516572 40.5599163)
,,,,,"white rectangular square, elongated object flying slightly",,,
9/18/16 14:34,USA,Fairbanks,AK,Circle,"((HOAX??)) Bright, radiating orb above Littleton.",64.837845,-147.7166749,POINT(-147.7166749 64.837845)
9/18/16 10:00,USA,Bensalem,PA,Circle,I was walking my dog outside and noticed 2 red lights side by side that ,40.1045549,-74.9512789,POINT(-74.9512789 40.1045549)
,,,,,looked like red eyes and underneath the 2 red lights was a brig,,,
9/18/16 8:00,USA,Tulsa,OK,Triangle,"3 flying objects seen, no sound, no lights, crafts flying in a line ",36.1556805,-95.9929112,POINT(-95.9929112 36.1556805)
,,,,,"formation, appeared to be gray-to tan in color, almost invisible ag",,,
9/18/16 5:30,USA,Hopedale,MA,Circle,"Huge super bright yellow circle, (not moon.) Never seen anything so huge ",42.1306522,-71.5411746,POINT(-71.5411746 42.1306522)
,,,,,bright and still in sky,,,
9/17/16 23:30,USA,Stamford,CT,Oval,Dark night sky about a dozen came low over the Long Island Sound then went ,32.373972,-86.1613859,POINT(-86.1613859 32.373972)
,,,,,higher in the sky as they moved from the northwest to the no,,,
5/12/16 16:00,USA,Elizabethtown,PA,Changing,Light seen changing shape and color moving rapidly over PA.,40.153364,-76.604252,POINT(-76.604252 40.153364)
9/17/16 23:15,USA,Miami,FL,Fireball,My 9 yr. old daughter and I were leaving her friend house we were inside ,25.800431,-80.2632189,POINT(-80.2632189 25.800431)
,,,,,the car when suddenly those flying objects like fire were in t,,,
9/17/16 22:36,USA,Colton,NY,Fireball,((NUFORC Note: Adv. Lights? PD)) Bright red lights were close; were doing ,44.553292,-74.9398039,POINT(-74.9398039 44.553292)
,,,,,"circles, then suddenly disappeared. ((anonymous report))",,,
9/17/16 21:00,USA,Danville,IN,Triangle,Me and my family were driving in a car and I noticed 3 lights in a row. The ,40.125222,-87.6304613,POINT(-87.6304613 40.125222)
,,,,,second I saw it I knew something was weird and didn't take,,,
9/17/16 20:33,USA,Summerlin,NV,Changing,"3 odd moving diamond shape lights appear in Sky over Summerlin, NV on ",36.1913172,-115.3018605,POINT(-115.3018605 36.1913172)
,,,,,9/17/16,,,
9/17/16 20:00,USA,Preston,MD,Light,Dim looking star like object traveling much faster than a plane and very ,38.7126151,-75.909936,POINT(-75.909936 38.7126151)
,,,,,"high up, changed direction quickly 3 times then vanished.",,,
9/17/16 19:36,USA,Los Alamos,NM,Circle,White glowing circular object in the sky. not moving just sitting there for ,35.8892969,-106.3206589,POINT(-106.3206589 35.8892969)
,,,,,last hour or more. ((NUFORC Note: Balloon? PD)),,,
9/17/16 19:35,USA,Albuquerque,NM,Light,Shrinkage and turning red before vanishing.,35.0841034,-106.650985,POINT(-106.650985 35.0841034)
9/17/16 19:30,USA,Durango,CO,Sphere,We noticed a bright spherical shaped orb in the sky south of town Durango ,37.2753739,-107.8799421,POINT(-107.8799421 37.2753739)
,,,,,Colorado. ((NUFORC Note: Balloon? PD)),,,
9/17/16 19:00,USA,Ridgway,CO,Triangle,Unidentified flying object near Mt. Sneffels,38.1527685,-107.7617262,POINT(-107.7617262 38.1527685)
9/17/16 19:00,USA,Lahaina,HI,Light,Steady bright red light moving at high speed over Royal Lahaina Resort,20.872684,-156.6762728,POINT(-156.6762728 20.872684)
5/12/16 4:00,USA,Webster,NY,Unknown,Very loud bang and bed shaking.,43.2122851,-77.4299938,POINT(-77.4299938 43.2122851)
9/17/16 10:00,USA,Layton,UT,Triangle,Triangle silver object hovering 15-20 min,41.0602888,-111.9661494,POINT(-111.9661494 41.0602888)
9/17/16 9:45,USA,Oklahoma City,OK,Changing,I thought I saw an aircraft circling but it looked more like a thick mist ,35.4729886,-97.5170535,POINT(-97.5170535 35.4729886)
,,,,,it kept moving and changing....it looked close to the airport,,,
9/17/16 8:45,USA,Orem,UT,Chevron,Hovering craft and lights over the Scera Shell,40.2975185,-111.6944684,POINT(-111.6944684 40.2975185)
9/17/16 0:00,USA,Athens,AL,Oval,"Woke up, the power was out, steeped outside to second floor balcony.",34.8283825,-86.91713365,POINT(-86.91713365 34.8283825)
,,,,,,,,
,,,,,"to see if the power was out just in my apartment, or power was",,,
9/16/16 23:33,USA,Pittsburg,CA,Light,White light that was still; only started to move 3 seconds after I started ,38.0181745,-121.8901231,POINT(-121.8901231 38.0181745)
,,,,,to record.,,,
9/16/16 22:30,USA,Aurora,IN,Light,"Multiple reddish orange shimmering lights rose from behind a hill, moved ",41.7605849,-88.3200714,POINT(-88.3200714 41.7605849)
,,,,,"west to east, and disappeared in the sky.",,,
9/16/16 21:45,CANADA,Bowmanville,ON,Circle,A bright orange light moving from South to North about the size of the moon,43.910755,-78.6803049,POINT(-78.6803049 43.910755)
9/16/16 21:40,USA,Cumberland,MD,Light,Orange orb.,39.6528509,-78.7624713,POINT(-78.7624713 39.6528509)
9/16/16 21:25,USA,Lewis center,OH,Sphere,Slow moving object with lights vanished,40.1983958,-83.0101842,POINT(-83.0101842 40.1983958)
9/16/16 21:06,USA,Long Beach,CA,Other,Orange orb.,33.78538945,-118.1580492,POINT(-118.158049215311 33.78538945)
5/12/16 3:30,USA,Stratford,CT,Light,"Very bright object moving slowly with flashing red, blue, green, and yellow ",37.2584705,-79.9622598,POINT(-79.9622598 37.2584705)
,,,,,"lights. ((NUFORC Note: Star ""Sirius?"" PD))",,,
9/16/16 21:00,USA,Richlands,NC,Changing,Large triangle shape change to a hamburger bun shaped. Red yellow green ,36.0864996,-82.3142993,POINT(-82.3142993 36.0864996)
,,,,,surrounding lights bright flashing.tiny white lit objects flew,,,
9/16/16 21:00,USA,Frisco,TX,Flash,Flashing orange lights above the clouds in Texas.,33.1506744,-96.8236115,POINT(-96.8236115 33.1506744)
9/16/16 21:00,USA,Grayling,MI,Unknown,We were in our house when 3 bright orange flashes lit up the sky. Too fast ,44.661517,-84.7146369,POINT(-84.7146369 44.661517)
,,,,,to go out to see any objects.,,,
9/16/16 21:00,USA,Sylmar,CA,Triangle,7 small objects appeared as birds then after 3 seconds they form 1 big ,34.3076252,-118.4492147,POINT(-118.4492147 34.3076252)
,,,,,object then Disappeared into the sky Fast very Fast,,,
9/16/16 20:45,USA,Waterville,ME,Light,Green light streaks through the night sky in Maine,44.5520105,-69.631712,POINT(-69.631712 44.5520105)
9/16/16 20:40,USA,Medford,MA,Light,I saw a green light ball and dropped into nothing within seconds. ,42.4184296,-71.1061638,POINT(-71.1061638 42.4184296)
,,,,,((anonymous report)),,,
9/16/16 20:30,USA,Ritzville,WA,Unknown,Fast white dot. ((anonymous report)) ((NUFORC Note: Possible satellite in ,47.1273723,-118.379975,POINT(-118.379975 47.1273723)
,,,,,polar orbit?? PD)),,,
9/16/16 20:30,USA,Huntington Beach,CA,Chevron,"I saw a faint chevron, echelon..? shape of faint lights cruising fast ",33.6783336,-118.0000165,POINT(-118.0000165 33.6783336)
,,,,,across the sky. But it was like a leading edge of a large echelon,,,
9/16/16 20:00,USA,Bangor,ME,Triangle,Driving down Palm St. I seen a medium sized triangle hovering low above the ,44.8011821,-68.7778137,POINT(-68.7778137 44.8011821)
,,,,,tree line. The object had 2 red lights flashing on 2 of the,,,
9/16/16 20:00,USA,Baldwinsville,NY,Light,Thought it was a cool colored planet. Cyan/green. It wasn't moving. so I ,43.158679,-76.3327099,POINT(-76.3327099 43.158679)
,,,,,took out the telescope. In the scope I saw 2 lights. Then quic,,,
5/12/16 1:40,USA,La Pine,OR,Fireball,Large bright orange fireball light silently Streaks over the Cascade ,43.6703995,-121.5036359,POINT(-121.5036359 43.6703995)
,,,,,mountains of central Oregon Definitely NOT a Meteor ... Too fast,,,
9/16/16 19:50,USA,Citrus Heights,CA,Oval,Strange Object Flying over California's northern valley.,38.7071247,-121.281061,POINT(-121.281061 38.7071247)
9/16/16 18:40,USA,Minot,ME,Other,Seen a bright like gleeming pink or orange yellow plane shaped like thing ,44.086105,-70.3207399,POINT(-70.3207399 44.086105)
,,,,,ovee but far away and flying up and out ... twards atmosphere,,,
9/16/16 14:45,USA,Redding,CA,Cigar,Cigar-shaped craft hovers then vanishes near Redding Muni Airport,40.5863563,-122.3916753,POINT(-122.3916753 40.5863563)
9/16/16 12:43,USA,Charleston,SC,Triangle,Stranger Object Photographed.,32.7876012,-79.9402727,POINT(-79.9402727 32.7876012)
9/16/16 10:15,USA,Marina Del Rey,CA,Light,Big Blue round light over the hill.,36.9225615,-121.8517848,POINT(-121.8517848 36.9225615)
9/16/16 4:30,USA,Belmont,NC,Other,Black mass floating and traveling SouthEast in Belmont NC,35.2429175,-81.0372969,POINT(-81.0372969 35.2429175)
9/16/16 2:30,USA,Nevada,MO,Unknown,I woke to someone shuffling down the hallway and entered my bedroom. This ,37.8389595,-94.3549186,POINT(-94.3549186 37.8389595)
,,,,,"""thing"" was short, grey, skinny, big belly.",,,
9/15/16 23:20,USA,Benson,AZ,Rectangle,Rectangular light bar shaped object swooped down the hills in a flash.,31.9678731,-110.2945759,POINT(-110.2945759 31.9678731)
9/15/16 22:53,USA,Stoughton,MA,Circle,Stationary red circle to the north. After about 1 1/2 minutes began to move ,42.1250995,-71.1022711,POINT(-71.1022711 42.1250995)
,,,,,rapidly in different directions and then turned white befor,,,
9/15/16 22:15,USA,Missoula,MT,Light,"Higgens Street Bridge--steady fast, bright light, going from horizon to ",46.8700801,-113.9952795,POINT(-113.9952795 46.8700801)
,,,,,horizon,,,
4/12/16 23:10,USA,Sauk Rapids,MN,Triangle,This was a triangular craft. 3 or 4 lights on the back which were bright ,45.5919097,-94.166101,POINT(-94.166101 45.5919097)
,,,,,and 4 or 5 going towards the tip at different intensities. Pit,,,
9/15/16 22:05,USA,Canby,OR,Light,"2 amber lights over field outside of Canby, Oregon.",45.2629088,-122.6925982,POINT(-122.6925982 45.2629088)
9/15/16 22:00,USA,Mountain Home,ID,Light,Orange lights appearing in sky.,43.1329504,-115.6911974,POINT(-115.6911974 43.1329504)
9/15/16 21:55,USA,Hyannis,MA,Sphere,Bluish-green spheres over Cape Cod,41.6528995,-70.28281,POINT(-70.28281 41.6528995)
9/15/16 21:45,USA,Bigfork,MT,Fireball,Comet-like craft moving northeast across sky.,48.0632865,-114.0726133,POINT(-114.0726133 48.0632865)
9/15/16 21:30,USA,Bear,DE,Sphere,Huge sphere covered in bright lights just hovers over tree line before ,39.6292788,-75.6582627,POINT(-75.6582627 39.6292788)
,,,,,slowly descending. ((anonymous report)),,,
9/15/16 21:30,USA,Wyoming,MI,Unknown,Two white lights then turned into multi light triangle and made a opposite ,42.9132581,-85.7057034,POINT(-85.7057034 42.9132581)
,,,,,turn and dissolved into the night sky.,,,
9/15/16 21:20,CANADA,Sundre,AB,Light,"Live about 25km west of Sundre, Alberta. Never seen a UFO or reported same, ",51.7970889,-114.6393203,POINT(-114.6393203 51.7970889)
,,,,,"so this is a first. Walking down driveway, in a south ea",,,
9/15/16 21:15,USA,Whitefish,MT,Light,Solid bright white light coming and going and a flash,48.4107966,-114.3346264,POINT(-114.3346264 48.4107966)
9/15/16 21:00,USA,Seagrove,FL,Fireball,"The objects were approximately 2 miles off the coast and I'd guess 5,000 ",30.3180152,-86.1312568,POINT(-86.1312568 30.3180152)
,,,,,feet above the ocean. Two lighted up first next to each other,,,
9/15/16 21:00,USA,Lakehills,TX,Sphere,Large spheres of light appear over Medina Lake,29.584395,-98.9489192,POINT(-98.9489192 29.584395)
4/12/16 22:40,USA,Huntington Beach,CA,Chevron,Fast-moving craft with gray lights over suburban Huntington Beach.,33.6783336,-118.0000165,POINT(-118.0000165 33.6783336)
9/15/16 20:47,USA,Warren,MI,Light,Solid bright blue light going NW then eventually light diminished. Lasted ,42.4775364,-83.0277,POINT(-83.0277 42.4775364)
,,,,,20 seconds,,,
9/15/16 20:30,USA,Menifee,CA,Fireball,3-4 objects shot across sky (west to east travel). Two red fireballs moving ,33.6864432,-117.1770436,POINT(-117.1770436 33.6864432)
,,,,,fast. Booms heard after 2nd fireball.,,,
9/15/16 20:25,USA,Spokane Valley,WA,Light,"Bright white light, maybe a meteor.",47.6691967,-117.1966686,POINT(-117.1966686 47.6691967)
9/15/16 19:45,USA,Baltimore,MD,Fireball,"3 glowing fireball-type objects with trailing fireball, seen flying at dusk ",39.2908816,-76.6107589,POINT(-76.6107589 39.2908816)
,,,,,"over east Baltimore, MD. ((anonymous report))",,,
9/15/16 19:30,USA,Farmington,ME,Other,A yellow diamond shaped craft hovered over the main street near the traffic ,44.6706157,-70.1511728,POINT(-70.1511728 44.6706157)
,,,,,"lights in Farmington Maine. As it descended around 50 ft, a",,,
9/15/16 19:00,USA,Smithville,NJ,Triangle,2 triangle shaped flying objects with 3 lights on bottom.,39.4940064,-74.4570946,POINT(-74.4570946 39.4940064)
9/15/16 19:00,USA,Warminster,PA,Light,Watched circular object approach plane an flash it with a bright light and ,40.1950775,-75.0889314,POINT(-75.0889314 40.1950775)
,,,,,fly past it. A short time later a similar object.,,,
9/15/16 18:45,USA,Hingham,MA,Disk,"Metallic disc hovering over Rte. 3, 10 miles South of Boston, Ma on ",42.2417669,-70.8897675,POINT(-70.8897675 42.2417669)
,,,,,09.15.16 at 18:45,,,
9/15/16 18:00,USA,Augusta,GA,Light,"Driving home on I-20, see really bright silver light/object in sky, seems ",33.4709714,-81.9748428,POINT(-81.9748428 33.4709714)
,,,,,"motionless, look for a few seconds at it, then its gone.",,,
9/15/16 17:15,USA,Gladwin,MI,Sphere,"Husband, neighbor and I watched a brightly lit sphere at the dusk line of ",43.9747774,-84.3873234,POINT(-84.3873234 43.9747774)
,,,,,the southwest skies of Gladwin sit still for several minutes,,,
4/12/16 20:00,USA,Freeport,ME,Diamond,Wife and I have seen roughly diamond shaped objects with multiple lights ,43.857307,-70.1037599,POINT(-70.1037599 43.857307)
,,,,,"seemingly white,yellow, and blue. ((NUFORC Note: Star? PD))",,,
9/15/16 14:30,USA,Prince William,VA,Disk,Metallic donut-shaped disc UFO.,38.7389846,-77.5536742,POINT(-77.5536742 38.7389846)
9/15/16 14:00,CANADA,Hamilton,ON,Light,"I was walking with my father heading north. Just after 2pm, I heard a jet ",43.255205,-79.8682019,POINT(-79.8682019 43.255205)
,,,,,"in the sky, i looked up and seen a privet jet and on its rig",,,
9/15/16 7:30,USA,Knoxville,TN,Light,"Bright orb over Knoxville, TN. 9/16/2016.",35.9603948,-83.921026,POINT(-83.921026 35.9603948)
9/15/16 4:00,USA,Ontario,CA,Other,"Observed a very bright and sparkling ""star"" in the eastern morning sky of ",34.065846,-117.6484303,POINT(-117.6484303 34.065846)
,,,,,"9/15/16, moving sporadically.",,,
9/15/16 2:35,USA,Miami,FL,Circle,My husband and I got up to smoke. I opened the living room window and I was ,25.800431,-80.2632189,POINT(-80.2632189 25.800431)
,,,,,looking at the Orion star constellation when I noticed a di,,,
9/15/16 0:00,USA,San Leandro,CA,Other,I have seen some of the most activity in the night sky than I’ve ever ,37.7249296,-122.1560767,POINT(-122.1560767 37.7249296)
,,,,,observed before in my life.,,,
,,,,,,,,
,,,,,"First it was black, shimmering bla",,,
9/14/16 22:37,USA,Highland,MI,Other,Twinkling flying stars? ((anonymous report)),39.1802516,-83.6304343,POINT(-83.6304343 39.1802516)
9/14/16 22:30,USA,Bradenton,FL,Circle,Circular red light with red orbs of light within it.,27.4724175,-82.563375,POINT(-82.563375 27.4724175)
9/14/16 21:30,USA,False Cape State Park,VA,Light,"Suddenly appearing red-orange light flares up large, then suddenly ",36.5876538,-75.8840898,POINT(-75.8840898 36.5876538)
,,,,,disappears,,,
9/14/16 21:30,USA,Springfield,OH,Light,Traveling east to west space Gradually gaining speed and then disappeared ,39.9242266,-83.8088171,POINT(-83.8088171 39.9242266)
,,,,,to the west in a few seconds,,,
12/18/16 22:00,CANADA,Wetaskiwin,AB,Light,Bright Red Light Seen by Roommate and Myself in Northren sky moving West to ,52.968492,-113.3679199,POINT(-113.3679199 52.968492)
,,,,,East.,,,
4/12/16 19:32,USA,Sioux Falls,SD,Light,"I was stopped at the intersection of 26th and Sycamore in Sioux Falls, SD, ",43.5499749,-96.7003269,POINT(-96.7003269 43.5499749)
,,,,,at 19:32. A huge bright light (white) was falling from the,,,
9/14/16 21:10,USA,Pittsburgh,PA,Light,Large circular light spotted in airspace above Consol Energy Center,40.4416941,-79.990086,POINT(-79.990086 40.4416941)
9/14/16 21:00,USA,Blanchester,OH,Unknown,Just above trees at the furthest of my field of view 1 diamond shaped light ,39.2931174,-83.9888204,POINT(-83.9888204 39.2931174)
,,,,,appeared fast and disappeared. ((anonymous report)),,,
9/14/16 21:00,USA,Sea Isle City,NJ,Light,"Bright red light appeared in different locations, bled into itself and then ",39.1548404,-74.689779,POINT(-74.689779 39.1548404)
,,,,,vanished.,,,
9/14/16 21:00,USA,Blanchester,OH,Unknown,Standing outside smoking a cigarette at dark. Live in outer rural setting ,39.2931174,-83.9888204,POINT(-83.9888204 39.2931174)
,,,,,so very visible night sky. Just above the trees at the furth,,,
9/14/16 20:30,USA,Ocean City,NJ,Light,Amber color lights appear brighten & dim,39.2776156,-74.5746,POINT(-74.5746 39.2776156)
9/14/16 20:30,USA,O'Fallon,MO,Light,"5 orange lights, blinking, over the lit up baseball field and then after 5 ",38.8106075,-90.6998476,POINT(-90.6998476 38.8106075)
,,,,,"min., faded until no longer visible ((anonymous report))",,,
9/14/16 18:00,USA,Kapaa,HI,Unknown,"Stange green ""thing""; shows up in series of photos. ((NUFORC Note: Possible ",22.074286,-159.3207479,POINT(-159.3207479 22.074286)
,,,,,lens flares? PD)),,,
9/14/16 3:05,USA,San Marcos,TX,Formation,Formation of bright round lights. ((anonymous report)),29.8826436,-97.9405827,POINT(-97.9405827 29.8826436)
9/14/16 2:30,USA,Lewisville,NC,Other,Round white lights creating a large hex shaped object outline in night sky ,36.097082,-80.4192219,POINT(-80.4192219 36.097082)
,,,,,of the Triad suburbs.,,,
9/14/16 1:00,USA,Grapevine,CA,Triangle,3 blue lights..strange engine sound above the 5fwy veered off to land and ,34.9416383,-118.9301003,POINT(-118.9301003 34.9416383)
,,,,,up. Not normal type of plane. Very very close to cars,,,
4/12/16 19:10,USA,Arcade,GA,Circle,"Very strange, very bright, flashing light.",34.0778881,-83.5615535,POINT(-83.5615535 34.0778881)
9/14/16 1:00,USA,Scarborough,ME,Disk,Multi-color craft red green white lights seen in sky thru my binoculars for ,43.59622635,-70.33005558,POINT(-70.3300555789045 43.59622635)
,,,,,hours. ((NUFORC Note: Probably a star? PD)),,,
9/14/16 1:00,USA,Salem,OR,Other,We witnessed a cluster of blue lights blinking randomly and moving around ,44.9391565,-123.0331209,POINT(-123.0331209 44.9391565)
,,,,,"sporadically for 3 minutes, then disappeared.",,,
9/14/16 0:30,USA,Alberton,MT,Light,3 lights with aura no tail steaking torwards same location,47.001587,-114.4734549,POINT(-114.4734549 47.001587)
9/13/16 22:30,USA,Mount Orab,OH,Diamond,Orange UFO lights seen in the night sky.,39.0275659,-83.9196519,POINT(-83.9196519 39.0275659)
9/13/16 22:30,USA,Sugar Grove,PA,Light,Moving color changing lights in the night sky over forest. ((NUFORC Note: ,41.9822921,-79.3408606,POINT(-79.3408606 41.9822921)
,,,,,"""Twinkling"" stars?? PD))",,,
9/13/16 22:20,USA,Corinth,MS,Light,"Pink star UFO hovering in the trees of Corinth, MS",34.9342548,-88.5222701,POINT(-88.5222701 34.9342548)
9/13/16 22:00,USA,Fort Edward,NY,Other,Four lights split into two!,43.267206,-73.5847089,POINT(-73.5847089 43.267206)
9/13/16 22:00,USA,Waverly,OH,Other,Long check mark shaped object with bright red lights that would go out one ,39.126735,-82.9854552,POINT(-82.9854552 39.126735)
,,,,,at a time,,,
9/13/16 21:51,USA,Dayton,OH,Other,A large orange glowing Fireball seem to proceed in an orderly fashion ,39.7589478,-84.1916068,POINT(-84.1916068 39.7589478)
,,,,,headed from west to east for about one and a half minutes. It co,,,
9/13/16 21:30,USA,Carolina Beach,NC,Other,Flashing multi colored lights in the night sky.,34.0351727,-77.8935965,POINT(-77.8935965 34.0351727)
4/12/16 19:00,USA,Redwood Falls,MN,Circle,Bright light shot across the sky. It wasn't as fast as a shooting star but ,44.5393721,-95.1164477,POINT(-95.1164477 44.5393721)
,,,,,faster then a plane or a satilight. ((anonymous report)),,,
9/13/16 21:30,USA,Lakewood,WA,Fireball,Red fireball/orb in night over Lakewood JBLM 9/13/16,47.1714085,-122.5163999,POINT(-122.5163999 47.1714085)
9/13/16 21:30,USA,Lakehills,TX,Sphere,"Orange spheres appear near Medina Lake, blinking on and off for several ",29.584395,-98.9489192,POINT(-98.9489192 29.584395)
,,,,,minutes.,,,
9/13/16 21:30,USA,Wilmington,NC,Circle,Five orange-red lights over ocean that kept appearing and then ,34.2257282,-77.9447106,POINT(-77.9447106 34.2257282)
,,,,,"disappearing. Would make a diagonal line, and would be spread out.",,,
9/13/16 21:20,USA,Atlantic Beach,NC,Formation,Caterpillar shape moving orange lights in the sky,34.6990505,-76.7402107,POINT(-76.7402107 34.6990505)
9/13/16 21:05,USA,Fayetteville,AR,Fireball,Greenish fireball shooting over treetops. ((anonymous report)),36.0625843,-94.1574327,POINT(-94.1574327 36.0625843)
9/13/16 21:00,USA,West Portsmouth,OH,Circle,"Green Blue and Red circular craft over West Portsmouth, Ohio right beside ",38.7584091,-83.0290643,POINT(-83.0290643 38.7584091)
,,,,,cellular tower 50 to 100 yards off the ground.,,,
9/13/16 21:00,USA,Kure Beach,NC,Unknown,First we saw a orange/gold light and then almost like a string of lights ,33.9968399,-77.907208,POINT(-77.907208 33.9968399)
,,,,,they appeared from left to right.,,,
9/13/16 20:40,USA,Eugene,OR,Circle,What at first appeared to be a satellite shoots straight towards me at high ,44.10118085,-123.1523837,POINT(-123.152383713818 44.10118085)
,,,,,"speed, then reverses direction back to where it had been.",,,
9/13/16 20:40,USA,Eugene,OR,Circle,What at first appeared to be a satellite shoots straight towards me at high ,44.10118085,-123.1523837,POINT(-123.152383713818 44.10118085)
,,,,,"speed, then reverses direction back to where it had been.",,,
9/13/16 20:15,USA,Dixon,MO,Circle,White and red horizontal lights hovering in sky.,42.4351249,-96.8792568,POINT(-96.8792568 42.4351249)
4/12/16 18:15,USA,Brinklow,MD,Circle,"4 lights traveling clockwise, converging and then breaking apart. ((NUFORC ",39.1659403,-77.0155329,POINT(-77.0155329 39.1659403)
,,,,,Note: We suspect advertising lights. PD)),,,
9/13/16 16:00,USA,Hollister,CA,Triangle,Dark Shape Following Interest Airliner.,36.8524545,-121.401602,POINT(-121.401602 36.8524545)
9/13/16 12:43,USA,Emerald isle,NC,Circle,"To the north east i seen one orange dot split in to 2 then 3,4,5,6. Happend ",34.6779399,-76.9507761,POINT(-76.9507761 34.6779399)
,,,,,again.then in the south east did the same thing each lighg,,,
9/13/16 10:50,USA,Arlington,VA,Other,Large Bird Drone Seen Flying Over VIP Security Helicopters?,38.8903961,-77.0841584,POINT(-77.0841584 38.8903961)
9/13/16 5:20,CANADA,Saskatoon,SK,Light,It looked like a star but cruised like a helicopter.,52.1303794,-106.6605123,POINT(-106.6605123 52.1303794)
9/13/16 3:30,USA,Gardner,MA,Sphere,Baseball-sized Orange Orb Witnessed.,42.5750883,-71.9981329,POINT(-71.9981329 42.5750883)
12/9/16 22:30,USA,Stamford,VT,Cross,Cross shaped lights to the west of Mt. Greylock viewed from Vermont,42.786873,-73.07845031,POINT(-73.0784503138915 42.786873)
12/9/16 22:00,USA,Brooks,ME,Fireball,"I thought it was a meteor, but it was going across the sky, not downward. ",44.550356,-69.1211699,POINT(-69.1211699 44.550356)
,,,,,"Orange, big, quiet, fast. ((anonymous report))",,,
12/9/16 22:00,USA,South Haven,MI,Disk,"A black disk 40 feet wide by 60 feet long with a tail, with three sets of ",42.4030865,-86.2736406,POINT(-86.2736406 42.4030865)
,,,,,bright white lights. Front lights would light then switch to,,,
12/9/16 22:00,USA,South Haven,MI,Disk,A white light turn into a streak of light then stopped and hover to us ,42.4030865,-86.2736406,POINT(-86.2736406 42.4030865)
,,,,,until 100 feet away.,,,
12/9/16 20:00,USA,Boston,GA,Other,"A large, bright, strange shaped object that moved fast, disappearing then ",30.7918613,-83.7898867,POINT(-83.7898867 30.7918613)
,,,,,reappearing three times.,,,
4/12/16 18:00,USA,Winter Harbor,ME,Disk,I saw this Unidentified object following me down the road for several miles ,44.395523,-68.0836489,POINT(-68.0836489 44.395523)
,,,,,before switching directions and disappearing.,,,
12/9/16 5:45,USA,Bradenton,FL,Circle,Orange/golden light hovered at orbital level for roughly 3 to 4 minutes. ,27.4724175,-82.563375,POINT(-82.563375 27.4724175)
,,,,,Then took off to the right very quickly then straight up.,,,
12/9/16 1:00,USA,Colorado Springs,CO,Triangle,I saw a triangle shape object with lights on the points and 1 light in the ,38.8339578,-104.8253484,POINT(-104.8253484 38.8339578)
,,,,,middle hovered in sky for 15-20 mins. ((anonymous report)),,,
12/9/16 1:00,USA,Anchorage,AK,Disk,Disk shape object above tree line. ((anonymous report)),61.2163129,-149.8948522,POINT(-149.8948522 61.2163129)
11/9/16 23:00,USA,Fresno,CA,Flash,3 to 6 white flashing lights. ((anonymous report)),36.7295295,-119.7088612,POINT(-119.708861160756 36.7295295)
11/9/16 22:37,USA,Paris,KY,Light,Red And Blue Orb Ufos.,38.2097987,-84.2529868,POINT(-84.2529868 38.2097987)
11/9/16 22:00,USA,Emmett,ID,Oval,Red orange & white lights move low to ground from behind Reagan Butte in ,43.8734979,-116.4993011,POINT(-116.4993011 43.8734979)
,,,,,"Emmett, Idaho, stops in mid air, back tracks a bit, then back.",,,
11/9/16 21:00,USA,St. Charles,IL,Formation,Giant bright amber lights in the sky. 2 then 3 in formation then formed ,41.9141984,-88.3086976,POINT(-88.3086976 41.9141984)
,,,,,into a tower of light while hovering in place. Brighter to dimm,,,
11/9/16 20:00,USA,Freeland,PA,Light,Several lights in same area for extended period of time with unusual cloud ,41.0167508,-75.897143,POINT(-75.897143 41.0167508)
,,,,,formation present.,,,
11/9/16 20:00,USA,Riverside,OH,Other,"Shaped like plane but silver and had very thin body, long thin wings, with ",39.7793976,-84.1246357,POINT(-84.1246357 39.7793976)
,,,,,T shaped tail that had a white light. ((anonymous report)),,,
11/9/16 19:43,USA,Austin,TX,Fireball,"((HOAX??)) Fireball passes overhead, shiny disc appears and lands. ",30.2711286,-97.7436994,POINT(-97.7436994 30.2711286)
,,,,,((anonymous report)),,,
4/12/16 17:30,USA,Severn,MD,Light,"Strange, silent, orange moving lights in sky, ((anonymous report))",39.127886,-76.6869129,POINT(-76.6869129 39.127886)
11/9/16 18:30,USA,South Berwick,ME,Sphere,Silver object reflecting light.,43.2345292,-70.8095017,POINT(-70.8095017 43.2345292)
11/9/16 18:00,USA,North Andover,MA,Triangle,It came out of the trees.,42.6987024,-71.1350574,POINT(-71.1350574 42.6987024)
11/9/16 14:00,USA,Los Angeles,CA,Cylinder,Cylindrical-shaped object emitting flashing lights near South Fairfax ,34.0543942,-118.2439408,POINT(-118.2439408 34.0543942)
,,,,,Avenue.,,,
11/9/16 13:40,USA,Savannah,GA,Cross,Vague grey shapes fly from sun into tall clouds during the day.,32.0835407,-81.0998341,POINT(-81.0998341 32.0835407)
11/9/16 11:00,USA,Thornton,CO,Cigar,((HOAX??)) Cigar shape moving steady east to west. ((anonymous report)),39.9174732,-104.905461,POINT(-104.905461007313 39.9174732)
11/9/16 7:30,CANADA,Moosomin,SK,Sphere,730 am going to work in underground facility 2km under . Greenish orb came ,50.1443787,-101.6690593,POINT(-101.6690593 50.1443787)
,,,,,into view looked odd so took three pics very quickly I did n,,,
11/9/16 7:01,USA,Warren,PA,Circle,Bright circle shape low. Not a plane.was there for about 3 min pulled over ,41.8119602,-79.2654451,POINT(-79.2654451 41.8119602)
,,,,,it was gone,,,
11/9/16 7:00,USA,Pontotoc,MS,Light,White lights over Mississippi. ((NUFORC Note: Possibly a flying insect?? ,34.2114655,-89.038265,POINT(-89.038265 34.2114655)
,,,,,PD)),,,
11/9/16 3:30,USA,Charlotte,NC,Unknown,"During a power blackout in Highland Creek about 3AM, a cluster of 4 lights ",35.2270869,-80.8431267,POINT(-80.8431267 35.2270869)
,,,,,at tree top level passed quickly. ((anonymous report)),,,
11/9/16 3:00,USA,Granville,NY,Light,Strange white lights close to the ground,43.408041,-73.2595829,POINT(-73.2595829 43.408041)
4/12/16 15:03,USA,Mission Viejo,CA,Light,Bright lights dancing in the sky changing in brightness and size.,33.5965685,-117.6594049,POINT(-117.6594049 33.5965685)
11/9/16 2:45,USA,Mellen,WI,Light,"This light appeared to be hovering over the Penokee Mountain range, near ",46.3257496,-90.6606626,POINT(-90.6606626 46.3257496)
,,,,,the same vicinity as the famous 1975 Baker Family UFO report.,,,
11/9/16 0:30,USA,Brandon,MS,Flash,Blindingly bright flash of light that zipped off into the sky noiselessly.,43.7327624,-88.7842766,POINT(-88.7842766 43.7327624)
11/9/16 0:05,CANADA,Ottawa,ON,Oval,Big bright white light with pulsating red-circle light in center crosses ,45.4210328,-75.6900218,POINT(-75.6900218 45.4210328)
,,,,,horizon going from West to East.,,,
11/9/16 0:00,USA,Hartsdale,NY,Changing,Unusual shape. ..100 percent not a airplane. .. did not make noise...it ,41.0189863,-73.7981883,POINT(-73.7981883 41.0189863)
,,,,,glowed... went over our heads.... it also traveled fast all thr,,,
10/9/16 23:30,CANADA,London,ON,Formation,Never seen anything like this before,42.988576,-81.2466429,POINT(-81.2466429 42.988576)
10/9/16 23:30,USA,Topeka,KS,Light,"Orange light turning red moving south to north, not an aircraft I am ",39.0490111,-95.6775556,POINT(-95.6775556 39.0490111)
,,,,,familiar with.,,,
10/9/16 22:00,CANADA,Selkirk,MB,Light,8-10 red orbs crossing the sky,50.1456208,-96.8788002,POINT(-96.8788002 50.1456208)
10/9/16 21:43,USA,Clayton,CA,Light,"Solid Ball light, decends then goes dark as leveling out heading due north",37.9410341,-121.9357924,POINT(-121.9357924 37.9410341)
10/9/16 21:25,USA,Cheyenne,WY,Other,"Taking a smoke break in front of my house, was watching a satellite ",33.27906,-116.3905559,POINT(-116.3905559 33.27906)
,,,,,"traveling east to west, looked in south/south east direction and im",,,
10/9/16 21:15,USA,Farmington,NY,Cylinder,"Ultra fast cylinder, se to nw.",42.9832214,-77.3089607,POINT(-77.3089607 42.9832214)
4/12/16 14:16,USA,Marana,AZ,Unknown,Black nose aircraft near sun. ((anonymous report)),32.4446988,-111.215709,POINT(-111.215709 32.4446988)
10/9/16 21:00,USA,Anchorage,AK,Light,"Light moving in random motions at approximately 30,000' - 50,000' for more ",61.2163129,-149.8948522,POINT(-149.8948522 61.2163129)
,,,,,than 2 hours.,,,
10/9/16 21:00,USA,Lima,OH,Fireball,Husband and I and 2 of our children were waiting in line at drive thru ,40.742551,-84.1052255,POINT(-84.1052255 40.742551)
,,,,,"restaurant. My 9 yr old said, ""What are those bright lights?""",,,
